{
  "title": "Ireland",
  "ckey": "ireland",
  "cports": [
    {
      "name": "Arklow",
      "t": null,
      "ckey": "arklow_ie",
      "lat": "52.8",
      "lng": "-6.15"
    },
    {
      "name": "Balbriggan",
      "t": null,
      "ckey": "balbriggan_ie",
      "lat": "53.37",
      "lng": "-6.11"
    },
    {
      "name": "Ballina",
      "t": null,
      "ckey": "ballina_ie",
      "lat": "54.12551988906422",
      "lng": "-9.145880284514595"
    },
    {
      "name": "Baltimore",
      "t": true,
      "ckey": "baltimore_ie",
      "lat": "51.475666038287734",
      "lng": "-9.351935138942833"
    },
    {
      "name": "Bantry",
      "t": null,
      "ckey": "bantry_ie",
      "lat": "51.673608335529295",
      "lng": "-9.466666949073414"
    },
    {
      "name": "Belfast",
      "t": true,
      "ckey": "belfast_ie",
      "lat": "54.614913188379",
      "lng": "-5.9089575873103"
    },
    {
      "name": "Burtonport",
      "t": null,
      "ckey": "burtonport_ie",
      "lat": "55.002239555832475",
      "lng": "-8.427840426317726"
    },
    {
      "name": "Cahirciveen",
      "t": null,
      "ckey": "cahirciveen_ie",
      "lat": "51.57",
      "lng": "-10.13"
    },
    {
      "name": "Cahirsiveen",
      "t": null,
      "ckey": "cahirsiveen_ie",
      "lat": "51.9582052427708",
      "lng": "-10.28389481439721"
    },
    {
      "name": "Carlingford",
      "t": null,
      "ckey": "carlingford_ie",
      "lat": "54.03333282583656",
      "lng": "-6.1741576110826655"
    },
    {
      "name": "Castletown Bere",
      "t": null,
      "ckey": "castletown_bere_ie",
      "lat": "51.64659152226731",
      "lng": "-9.913919688756897"
    },
    {
      "name": "Clarecastle",
      "t": null,
      "ckey": "clarecastle_ie",
      "lat": "52.80961222847498",
      "lng": "-8.960986209908704"
    },
    {
      "name": "Clonakilty",
      "t": null,
      "ckey": "clonakilty_ie",
      "lat": "51.37",
      "lng": "-8.53"
    },
    {
      "name": "Cobh",
      "t": null,
      "ckey": "cobh_ie",
      "lat": "51.85708770720335",
      "lng": "-8.273720622790973"
    },
    {
      "name": "Cork",
      "t": true,
      "ckey": "cork_ie",
      "lat": "51.9",
      "lng": "-8.40000000000002"
    },
    {
      "name": "Drogheda",
      "t": false,
      "ckey": "drogheda_ie",
      "lat": "53.714403972731986",
      "lng": "-6.318511951643592"
    },
    {
      "name": "Dublin",
      "t": true,
      "ckey": "dublin_ie",
      "lat": "53.34344273853026",
      "lng": "-6.226654018156561"
    },
    {
      "name": "Duncannon",
      "t": null,
      "ckey": "duncannon_ie",
      "lat": "52.21750654442116",
      "lng": "-6.919600615116449"
    },
    {
      "name": "Dundalk",
      "t": null,
      "ckey": "dundalk_ie",
      "lat": "54.00080746500896",
      "lng": "-6.353120947054871"
    },
    {
      "name": "Dungarvan",
      "t": null,
      "ckey": "dungarvan_ie",
      "lat": "52.09430359217247",
      "lng": "-7.601373022594197"
    },
    {
      "name": "Dun Laoghaire",
      "t": false,
      "ckey": "dun_laoghaire_ie",
      "lat": "53.29486984824771",
      "lng": "-6.1343632214308785"
    },
    {
      "name": "Dunmore East",
      "t": null,
      "ckey": "dunmore_east_ie",
      "lat": "52.15000036975934",
      "lng": "-6.998439354271791"
    },
    {
      "name": "Fenit",
      "t": null,
      "ckey": "fenit_ie",
      "lat": "52.28179228488932",
      "lng": "-9.819974705591603"
    },
    {
      "name": "Foynes",
      "t": false,
      "ckey": "foynes_ie",
      "lat": "52.849999137037265",
      "lng": "-9.155555247473918"
    },
    {
      "name": "Galway",
      "t": false,
      "ckey": "galway_ie",
      "lat": "53.26662701602971",
      "lng": "-9.055481023302184"
    },
    {
      "name": "Greenore",
      "t": null,
      "ckey": "greenore_ie",
      "lat": "54.02566935358781",
      "lng": "-6.134020004425086"
    },
    {
      "name": "Howth",
      "t": null,
      "ckey": "howth_ie",
      "lat": "53.38497028868393",
      "lng": "-6.060487041594374"
    },
    {
      "name": "Killala",
      "t": null,
      "ckey": "killala_ie",
      "lat": "54.24296499184259",
      "lng": "-9.209612779659984"
    },
    {
      "name": "Killybegs",
      "t": null,
      "ckey": "killybegs_ie",
      "lat": "54.61107120697126",
      "lng": "-8.47041214164077"
    },
    {
      "name": "Kilrush",
      "t": null,
      "ckey": "kilrush_ie",
      "lat": "52.63750170667441",
      "lng": "-9.488327186478816"
    },
    {
      "name": "Kinsale",
      "t": null,
      "ckey": "kinsale_ie",
      "lat": "51.699149827930555",
      "lng": "-8.494694317913812"
    },
    {
      "name": "Limerick",
      "t": false,
      "ckey": "limerick_ie",
      "lat": "52.66707642578057",
      "lng": "-8.630962568271089"
    },
    {
      "name": "Moville",
      "t": null,
      "ckey": "moville_ie",
      "lat": "55.1927403619733",
      "lng": "-7.040386961059424"
    },
    {
      "name": "New Ross",
      "t": null,
      "ckey": "new_ross_ie",
      "lat": "52.3833333333",
      "lng": "-6.95"
    },
    {
      "name": "Rathmullen",
      "t": null,
      "ckey": "rathmullen_ie",
      "lat": "55.099836128882785",
      "lng": "-7.544132622254905"
    },
    {
      "name": "Rosslare",
      "t": false,
      "ckey": "rosslare_ie",
      "lat": "52.25960783046512",
      "lng": "-6.384430107323386"
    },
    {
      "name": "Shannon Foynes Port",
      "t": null,
      "ckey": "shannon_foynes_port_ie",
      "lat": "52.6856101440934",
      "lng": "-8.610502736612316"
    },
    {
      "name": "Sligo",
      "t": null,
      "ckey": "sligo_ie",
      "lat": "54.27829414532449",
      "lng": "-8.483146175574612"
    },
    {
      "name": "Waterford",
      "t": false,
      "ckey": "waterford_ie",
      "lat": "52.25",
      "lng": "-7.11666666666998"
    },
    {
      "name": "Westport",
      "t": null,
      "ckey": "westport_ie",
      "lat": "53.8",
      "lng": "-9.53333333333"
    },
    {
      "name": "Wicklow",
      "t": null,
      "ckey": "wicklow_ie",
      "lat": "52.976719636708516",
      "lng": "-6.038826377302149"
    },
    {
      "name": "Youghal",
      "t": null,
      "ckey": "youghal_ie",
      "lat": "51.94661441174929",
      "lng": "-7.8470660260969565"
    }
  ],
  "ccountries": [
    {
      "name": "United Kingdom",
      "code": "GB",
      "link": "/maritime/united_kingdom"
    }
  ]
}
