[
  {
    "name": "Sarajevo International Airport",
    "code": "4469",
    "type": "large_airport",
    "location": "Sarajevo",
    "country_id": "302675",
    "country_code": "BA",
    "IATA": "SJJ",
    "ICAO": "LQSA",
    "Latitude": "43.8246",
    "Longitude": "18.331499",
    "Altitude": "1708",
    "EDI": null
  },
  {
    "name": "Mostar International Airport",
    "code": "4468",
    "type": "medium_airport",
    "location": "Mostar",
    "country_id": "302675",
    "country_code": "BA",
    "IATA": "OMO",
    "ICAO": "LQMO",
    "Latitude": "43.282901763916016",
    "Longitude": "17.84589958190918",
    "Altitude": "156",
    "EDI": null
  },
  {
    "name": "Banja Luka International Airport",
    "code": "4467",
    "type": "medium_airport",
    "location": "Mahovljani",
    "country_id": "302675",
    "country_code": "BA",
    "IATA": "BNX",
    "ICAO": "LQBK",
    "Latitude": "44.941399",
    "Longitude": "17.297501",
    "Altitude": "400",
    "EDI": null
  },
  {
    "name": "Tuzla International Airport",
    "code": "4470",
    "type": "medium_airport",
    "location": "Dubrave Gornje",
    "country_id": "302675",
    "country_code": "BA",
    "IATA": "TZL",
    "ICAO": "LQTZ",
    "Latitude": "44.458698",
    "Longitude": "18.7248",
    "Altitude": "784",
    "EDI": null
  },
  {
    "name": "Koprivna Begovac Airfield",
    "code": "575092",
    "type": "small_airport",
    "location": "Modriča",
    "country_id": "302675",
    "country_code": "BA",
    "IATA": null,
    "ICAO": null,
    "Latitude": "44.9157",
    "Longitude": "18.15029",
    "Altitude": "466",
    "EDI": null
  },
  {
    "name": "Dragon Airfield",
    "code": "549465",
    "type": "small_airport",
    "location": "Suvo Polje",
    "country_id": "302675",
    "country_code": "BA",
    "IATA": null,
    "ICAO": null,
    "Latitude": "44.67767",
    "Longitude": "19.12988",
    "Altitude": null,
    "EDI": null
  },
  {
    "name": "Sport Airfield Popovi",
    "code": "525747",
    "type": "small_airport",
    "location": null,
    "country_id": "302675",
    "country_code": "BA",
    "IATA": null,
    "ICAO": null,
    "Latitude": "44.767693",
    "Longitude": "19.297417",
    "Altitude": "310",
    "EDI": null
  },
  {
    "name": "Gorice Airfield",
    "code": "346794",
    "type": "small_airport",
    "location": "Gorice",
    "country_id": "302675",
    "country_code": "BA",
    "IATA": null,
    "ICAO": null,
    "Latitude": "44.911565",
    "Longitude": "18.738884",
    "Altitude": null,
    "EDI": null
  },
  {
    "name": "Brčko-Brod Airfield",
    "code": "321737",
    "type": "small_airport",
    "location": "Brod",
    "country_id": "302675",
    "country_code": "BA",
    "IATA": null,
    "ICAO": null,
    "Latitude": "44.846235",
    "Longitude": "18.761888",
    "Altitude": "337",
    "EDI": null
  },
  {
    "name": "Prijedor Urije Airfield",
    "code": "30293",
    "type": "small_airport",
    "location": "Prijedor",
    "country_id": "302675",
    "country_code": "BA",
    "IATA": null,
    "ICAO": null,
    "Latitude": "44.993986",
    "Longitude": "16.735457",
    "Altitude": "591",
    "EDI": null
  },
  {
    "name": "PPG Paragliding Field",
    "code": "562078",
    "type": "small_airport",
    "location": "Sanski Most",
    "country_id": "302675",
    "country_code": "BA",
    "IATA": null,
    "ICAO": null,
    "Latitude": "44.77271",
    "Longitude": "16.64856",
    "Altitude": "528",
    "EDI": null
  },
  {
    "name": "Medeno Polje Airstrip",
    "code": "525388",
    "type": "small_airport",
    "location": null,
    "country_id": "302675",
    "country_code": "BA",
    "IATA": null,
    "ICAO": null,
    "Latitude": "44.57383",
    "Longitude": "16.28217",
    "Altitude": "1972",
    "EDI": null
  },
  {
    "name": "Nisici Airfield",
    "code": "525317",
    "type": "small_airport",
    "location": "Šabanci",
    "country_id": "302675",
    "country_code": "BA",
    "IATA": null,
    "ICAO": null,
    "Latitude": "44.069444",
    "Longitude": "18.508974",
    "Altitude": "3155",
    "EDI": null
  },
  {
    "name": "Kreševo Airstrip",
    "code": "345866",
    "type": "small_airport",
    "location": "Kreševo",
    "country_id": "302675",
    "country_code": "BA",
    "IATA": null,
    "ICAO": null,
    "Latitude": "43.885661",
    "Longitude": "18.068562",
    "Altitude": null,
    "EDI": null
  },
  {
    "name": "Banja Luka Zalužani Airfield",
    "code": "317425",
    "type": "small_airport",
    "location": "Zalužani",
    "country_id": "302675",
    "country_code": "BA",
    "IATA": null,
    "ICAO": null,
    "Latitude": "44.8482",
    "Longitude": "17.222826",
    "Altitude": null,
    "EDI": null
  },
  {
    "name": "Ciljuge Sport Airfield",
    "code": "43884",
    "type": "small_airport",
    "location": "Bašigovci",
    "country_id": "302675",
    "country_code": "BA",
    "IATA": null,
    "ICAO": null,
    "Latitude": "44.436094",
    "Longitude": "18.686457",
    "Altitude": "725",
    "EDI": null
  },
  {
    "name": "Visoko Kenan Jusufbasic Airfield",
    "code": "30536",
    "type": "small_airport",
    "location": "Visoko",
    "country_id": "302675",
    "country_code": "BA",
    "IATA": null,
    "ICAO": null,
    "Latitude": "44.025059",
    "Longitude": "18.097114",
    "Altitude": "1470",
    "EDI": null
  },
  {
    "name": "Tuzla Jegin Lug Sport Airfield",
    "code": "30500",
    "type": "small_airport",
    "location": "Rainci Gornji",
    "country_id": "302675",
    "country_code": "BA",
    "IATA": null,
    "ICAO": null,
    "Latitude": "44.4578",
    "Longitude": "18.808122",
    "Altitude": "869",
    "EDI": null
  },
  {
    "name": "Livno Brda Bosni Airfield",
    "code": "30079",
    "type": "small_airport",
    "location": "Livno",
    "country_id": "302675",
    "country_code": "BA",
    "IATA": null,
    "ICAO": null,
    "Latitude": "43.791141",
    "Longitude": "16.893268",
    "Altitude": "2349",
    "EDI": null
  },
  {
    "name": "Bihać Golubić Airfield",
    "code": "29705",
    "type": "small_airport",
    "location": "Bihać",
    "country_id": "302675",
    "country_code": "BA",
    "IATA": null,
    "ICAO": null,
    "Latitude": "44.797061",
    "Longitude": "15.904474",
    "Altitude": "761",
    "EDI": null
  },
  {
    "name": "Rajlovac Helicopter Base",
    "code": "345690",
    "type": "heliport",
    "location": "Sarajevo",
    "country_id": "302675",
    "country_code": "BA",
    "IATA": null,
    "ICAO": null,
    "Latitude": "43.86972",
    "Longitude": "18.30428",
    "Altitude": null,
    "EDI": null
  },
  {
    "name": "Glamoč Air Base",
    "code": "324126",
    "type": "closed",
    "location": "Glamoč",
    "country_id": "302675",
    "country_code": "BA",
    "IATA": null,
    "ICAO": null,
    "Latitude": "44.083894",
    "Longitude": "16.813588",
    "Altitude": "3034",
    "EDI": null
  },
  {
    "name": "Ćoralići Air Base",
    "code": "324125",
    "type": "closed",
    "location": "Ćoralići",
    "country_id": "302675",
    "country_code": "BA",
    "IATA": null,
    "ICAO": null,
    "Latitude": "44.980871",
    "Longitude": "15.869373",
    "Altitude": null,
    "EDI": null
  },
  {
    "name": "Trebinje (Zupci) Aerodrome",
    "code": "335270",
    "type": "closed",
    "location": "Grab",
    "country_id": "302675",
    "country_code": "BA",
    "IATA": null,
    "ICAO": null,
    "Latitude": "42.62613",
    "Longitude": "18.41181",
    "Altitude": "2297",
    "EDI": null
  },
  {
    "name": "Trebinje Helipad",
    "code": "350119",
    "type": "heliport",
    "location": "Trebinje",
    "country_id": "302675",
    "country_code": "BA",
    "IATA": null,
    "ICAO": null,
    "Latitude": "42.705382",
    "Longitude": "18.336074",
    "Altitude": "895",
    "EDI": null
  },
  {
    "name": "Grad Sunca Helipad",
    "code": "508223",
    "type": "heliport",
    "location": "Trebinje",
    "country_id": "302675",
    "country_code": "BA",
    "IATA": null,
    "ICAO": null,
    "Latitude": "42.707812",
    "Longitude": "18.286613",
    "Altitude": "265",
    "EDI": null
  }
]