[
  {
    "name": "Hazrat Shahjalal International Airport",
    "code": "26534",
    "type": "large_airport",
    "location": "Dhaka",
    "country_id": "302622",
    "country_code": "BD",
    "IATA": "DAC",
    "ICAO": "VGHS",
    "Latitude": "23.843347",
    "Longitude": "90.397783",
    "Altitude": "30",
    "EDI": null
  },
  {
    "name": "Barisal Airport",
    "code": "26525",
    "type": "medium_airport",
    "location": "Barisal",
    "country_id": "302622",
    "country_code": "BD",
    "IATA": "BZL",
    "ICAO": "VGBR",
    "Latitude": "22.801000595092773",
    "Longitude": "90.30120086669922",
    "Altitude": "23",
    "EDI": null
  },
  {
    "name": "Cox's Bazar Airport",
    "code": "26526",
    "type": "medium_airport",
    "location": "Cox's Bazar",
    "country_id": "302622",
    "country_code": "BD",
    "IATA": "CXB",
    "ICAO": "VGCB",
    "Latitude": "21.452199935913086",
    "Longitude": "91.96389770507812",
    "Altitude": "12",
    "EDI": null
  },
  {
    "name": "Shah Amanat International Airport",
    "code": "26527",
    "type": "medium_airport",
    "location": "Chattogram (Chittagong)",
    "country_id": "302622",
    "country_code": "BD",
    "IATA": "CGP",
    "ICAO": "VGEG",
    "Latitude": "22.249599",
    "Longitude": "91.813301",
    "Altitude": "12",
    "EDI": null
  },
  {
    "name": "Jessore Airport",
    "code": "26529",
    "type": "medium_airport",
    "location": "Jashore (Jessore)",
    "country_id": "302622",
    "country_code": "BD",
    "IATA": "JSR",
    "ICAO": "VGJR",
    "Latitude": "23.1838",
    "Longitude": "89.160797",
    "Altitude": "20",
    "EDI": null
  },
  {
    "name": "Shah Mokhdum Airport",
    "code": "26530",
    "type": "medium_airport",
    "location": "Rajshahi",
    "country_id": "302622",
    "country_code": "BD",
    "IATA": "RJH",
    "ICAO": "VGRJ",
    "Latitude": "24.43720054626465",
    "Longitude": "88.61650085449219",
    "Altitude": "64",
    "EDI": null
  },
  {
    "name": "Saidpur Airport",
    "code": "26531",
    "type": "medium_airport",
    "location": "Saidpur",
    "country_id": "302622",
    "country_code": "BD",
    "IATA": "SPD",
    "ICAO": "VGSD",
    "Latitude": "25.759199142456055",
    "Longitude": "88.90889739990234",
    "Altitude": "125",
    "EDI": null
  },
  {
    "name": "Osmany International Airport",
    "code": "26532",
    "type": "medium_airport",
    "location": "Sylhet",
    "country_id": "302622",
    "country_code": "BD",
    "IATA": "ZYL",
    "ICAO": "VGSY",
    "Latitude": "24.963832",
    "Longitude": "91.864843",
    "Altitude": "50",
    "EDI": null
  },
  {
    "name": "Ishurdi Airport",
    "code": "26528",
    "type": "medium_airport",
    "location": "Ishurdi",
    "country_id": "302622",
    "country_code": "BD",
    "IATA": "IRD",
    "ICAO": "VGIS",
    "Latitude": "24.1525",
    "Longitude": "89.0494",
    "Altitude": "45",
    "EDI": null
  },
  {
    "name": "Tejgaon Airport",
    "code": "26533",
    "type": "small_airport",
    "location": "Dhaka",
    "country_id": "302622",
    "country_code": "BD",
    "IATA": null,
    "ICAO": null,
    "Latitude": "23.778799057006836",
    "Longitude": "90.38269805908203",
    "Altitude": "24",
    "EDI": null
  },
  {
    "name": "Shamshernagar Airport",
    "code": "32744",
    "type": "small_airport",
    "location": "Shamshernagar",
    "country_id": "302622",
    "country_code": "BD",
    "IATA": "ZHM",
    "ICAO": "VGSH",
    "Latitude": "24.398333",
    "Longitude": "91.916944",
    "Altitude": "56",
    "EDI": null
  },
  {
    "name": "Noakhali Airport",
    "code": "340000",
    "type": "small_airport",
    "location": "Noakhali",
    "country_id": "302622",
    "country_code": "BD",
    "IATA": null,
    "ICAO": null,
    "Latitude": "22.7389",
    "Longitude": "91.06489",
    "Altitude": "26",
    "EDI": null
  },
  {
    "name": "Thakurgaon Airport",
    "code": "32455",
    "type": "small_airport",
    "location": "Thakurgaon",
    "country_id": "302622",
    "country_code": "BD",
    "IATA": "TKR",
    "ICAO": "VGSG",
    "Latitude": "26.016399",
    "Longitude": "88.403603",
    "Altitude": "176",
    "EDI": null
  },
  {
    "name": "Lalmonirhat Airport",
    "code": "31831",
    "type": "small_airport",
    "location": "Lalmonirhat",
    "country_id": "302622",
    "country_code": "BD",
    "IATA": null,
    "ICAO": null,
    "Latitude": "25.887624",
    "Longitude": "89.431254",
    "Altitude": "106",
    "EDI": null
  },
  {
    "name": "Bogra Airport",
    "code": "309876",
    "type": "small_airport",
    "location": "Bogra",
    "country_id": "302622",
    "country_code": "BD",
    "IATA": null,
    "ICAO": null,
    "Latitude": "24.8668",
    "Longitude": "89.3165",
    "Altitude": "69",
    "EDI": null
  },
  {
    "name": "Comilla Airport",
    "code": "30832",
    "type": "small_airport",
    "location": "Comilla",
    "country_id": "302622",
    "country_code": "BD",
    "IATA": "CLA",
    "ICAO": "VGCM",
    "Latitude": "23.437201",
    "Longitude": "91.189697",
    "Altitude": "25",
    "EDI": null
  },
  {
    "name": "Patuakhali Airport",
    "code": "340003",
    "type": "small_airport",
    "location": "Patuakhali",
    "country_id": "302622",
    "country_code": "BD",
    "IATA": null,
    "ICAO": null,
    "Latitude": "22.37647",
    "Longitude": "90.32213",
    "Altitude": null,
    "EDI": null
  },
  {
    "name": "Bolipara Heliport",
    "code": "349324",
    "type": "heliport",
    "location": "Bolipara",
    "country_id": "302622",
    "country_code": "BD",
    "IATA": null,
    "ICAO": null,
    "Latitude": "21.88065",
    "Longitude": "92.39703",
    "Altitude": "434",
    "EDI": null
  },
  {
    "name": "Keokradong Heliport",
    "code": "349325",
    "type": "heliport",
    "location": "Keokradong",
    "country_id": "302622",
    "country_code": "BD",
    "IATA": null,
    "ICAO": null,
    "Latitude": "21.94874",
    "Longitude": "92.5146",
    "Altitude": "3186",
    "EDI": null
  },
  {
    "name": "Dhumdumia BGB Heliport",
    "code": "349320",
    "type": "heliport",
    "location": "Dhumdumia",
    "country_id": "302622",
    "country_code": "BD",
    "IATA": null,
    "ICAO": null,
    "Latitude": "20.95911",
    "Longitude": "92.25133",
    "Altitude": "18",
    "EDI": null
  },
  {
    "name": "Thanchi BGB Heliport",
    "code": "349326",
    "type": "heliport",
    "location": "Thanchi",
    "country_id": "302622",
    "country_code": "BD",
    "IATA": null,
    "ICAO": null,
    "Latitude": "21.81823",
    "Longitude": "92.44067",
    "Altitude": "233",
    "EDI": null
  },
  {
    "name": "Remakri Heliport",
    "code": "349327",
    "type": "heliport",
    "location": "Remakri",
    "country_id": "302622",
    "country_code": "BD",
    "IATA": null,
    "ICAO": null,
    "Latitude": "21.67607",
    "Longitude": "92.52014",
    "Altitude": "233",
    "EDI": null
  },
  {
    "name": "Boro Mowdak Heliport",
    "code": "349328",
    "type": "heliport",
    "location": "Boro Mowdak",
    "country_id": "302622",
    "country_code": "BD",
    "IATA": null,
    "ICAO": null,
    "Latitude": "21.57058",
    "Longitude": "92.57103",
    "Altitude": "341",
    "EDI": null
  },
  {
    "name": "Upper Sangu River Heliport 1",
    "code": "349329",
    "type": "heliport",
    "location": "Remakri",
    "country_id": "302622",
    "country_code": "BD",
    "IATA": null,
    "ICAO": null,
    "Latitude": "21.40321",
    "Longitude": "92.58095",
    "Altitude": "502",
    "EDI": null
  },
  {
    "name": "Upper Sangu River Heliport 2",
    "code": "349330",
    "type": "heliport",
    "location": "Remakri",
    "country_id": "302622",
    "country_code": "BD",
    "IATA": null,
    "ICAO": null,
    "Latitude": "21.40229",
    "Longitude": "92.60747",
    "Altitude": "609",
    "EDI": null
  },
  {
    "name": "Marang Chara Heliport",
    "code": "349331",
    "type": "heliport",
    "location": "Remakri",
    "country_id": "302622",
    "country_code": "BD",
    "IATA": null,
    "ICAO": null,
    "Latitude": "21.34993",
    "Longitude": "92.60561",
    "Altitude": "491",
    "EDI": null
  },
  {
    "name": "Upper Sangu River Heliport 3",
    "code": "349332",
    "type": "heliport",
    "location": "Remakri",
    "country_id": "302622",
    "country_code": "BD",
    "IATA": null,
    "ICAO": null,
    "Latitude": "21.30249",
    "Longitude": "92.61998",
    "Altitude": "941",
    "EDI": null
  },
  {
    "name": "Chapal Nawabganj Heliport",
    "code": "595338",
    "type": "heliport",
    "location": "Nawabganj",
    "country_id": "302622",
    "country_code": "BD",
    "IATA": null,
    "ICAO": null,
    "Latitude": "24.586668",
    "Longitude": "88.283111",
    "Altitude": "75",
    "EDI": null
  },
  {
    "name": "Bajitpur Regional Airport",
    "code": "349397",
    "type": "closed",
    "location": "Bajitpur",
    "country_id": "302622",
    "country_code": "BD",
    "IATA": null,
    "ICAO": null,
    "Latitude": "24.21232",
    "Longitude": "90.9065",
    "Altitude": "33",
    "EDI": null
  },
  {
    "name": "Uttara Helipad",
    "code": "516839",
    "type": "heliport",
    "location": "Dhaka",
    "country_id": "302622",
    "country_code": "BD",
    "IATA": null,
    "ICAO": null,
    "Latitude": "23.892722",
    "Longitude": "90.390378",
    "Altitude": "31",
    "EDI": null
  },
  {
    "name": "Khan Jahan Ali Airport (under construction)",
    "code": "313421",
    "type": "closed",
    "location": "Bagerhat",
    "country_id": "302622",
    "country_code": "BD",
    "IATA": null,
    "ICAO": null,
    "Latitude": "22.6486",
    "Longitude": "89.6454",
    "Altitude": "21",
    "EDI": null
  },
  {
    "name": "Khulna Circuit House Helipad",
    "code": "516838",
    "type": "heliport",
    "location": "Khulna",
    "country_id": "302622",
    "country_code": "BD",
    "IATA": null,
    "ICAO": null,
    "Latitude": "22.813996",
    "Longitude": "89.569741",
    "Altitude": "22",
    "EDI": null
  },
  {
    "name": "Bhasan Char Nayamasti Heliport 2",
    "code": "339993",
    "type": "heliport",
    "location": "Hatiya",
    "country_id": "302622",
    "country_code": "BD",
    "IATA": null,
    "ICAO": null,
    "Latitude": "22.36626",
    "Longitude": "91.36998",
    "Altitude": null,
    "EDI": null
  },
  {
    "name": "Burhanuddin Heliport",
    "code": "340002",
    "type": "heliport",
    "location": "Burhanuddin",
    "country_id": "302622",
    "country_code": "BD",
    "IATA": null,
    "ICAO": null,
    "Latitude": "22.508",
    "Longitude": "90.71304",
    "Altitude": null,
    "EDI": null
  },
  {
    "name": "Inani Beach Heliport",
    "code": "339981",
    "type": "heliport",
    "location": "Inani",
    "country_id": "302622",
    "country_code": "BD",
    "IATA": null,
    "ICAO": null,
    "Latitude": "21.22472",
    "Longitude": "92.0482",
    "Altitude": null,
    "EDI": null
  },
  {
    "name": "Ocean Paradise Heliport",
    "code": "339982",
    "type": "heliport",
    "location": "Cox's Bazar",
    "country_id": "302622",
    "country_code": "BD",
    "IATA": null,
    "ICAO": null,
    "Latitude": "21.418572",
    "Longitude": "91.982574",
    "Altitude": null,
    "EDI": null
  },
  {
    "name": "Hotel Sea Palace Heliport",
    "code": "339983",
    "type": "closed",
    "location": "Cox's Bazar",
    "country_id": "302622",
    "country_code": "BD",
    "IATA": null,
    "ICAO": null,
    "Latitude": "21.419863",
    "Longitude": "91.981569",
    "Altitude": null,
    "EDI": null
  },
  {
    "name": "Nilgiri Heliport",
    "code": "339984",
    "type": "heliport",
    "location": "Barpara",
    "country_id": "302622",
    "country_code": "BD",
    "IATA": null,
    "ICAO": null,
    "Latitude": "21.91355",
    "Longitude": "92.3244",
    "Altitude": null,
    "EDI": null
  },
  {
    "name": "Boga Lake Heliport",
    "code": "339985",
    "type": "heliport",
    "location": "Ruma",
    "country_id": "302622",
    "country_code": "BD",
    "IATA": null,
    "ICAO": null,
    "Latitude": "21.97982",
    "Longitude": "92.46715",
    "Altitude": null,
    "EDI": null
  },
  {
    "name": "Ruma Helipad",
    "code": "339987",
    "type": "heliport",
    "location": "Ruma",
    "country_id": "302622",
    "country_code": "BD",
    "IATA": null,
    "ICAO": null,
    "Latitude": "22.05122",
    "Longitude": "92.38641",
    "Altitude": null,
    "EDI": null
  },
  {
    "name": "Bandarban Heliport",
    "code": "339988",
    "type": "heliport",
    "location": "Bandarban",
    "country_id": "302622",
    "country_code": "BD",
    "IATA": null,
    "ICAO": null,
    "Latitude": "22.20272",
    "Longitude": "92.21449",
    "Altitude": null,
    "EDI": null
  },
  {
    "name": "NVK Helipad",
    "code": "339989",
    "type": "heliport",
    "location": "Dangar Char",
    "country_id": "302622",
    "country_code": "BD",
    "IATA": null,
    "ICAO": null,
    "Latitude": "22.28432",
    "Longitude": "91.80263",
    "Altitude": null,
    "EDI": null
  },
  {
    "name": "BNS Issa Khan Heliport",
    "code": "339990",
    "type": "heliport",
    "location": "Chattogram (Chittagong)",
    "country_id": "302622",
    "country_code": "BD",
    "IATA": null,
    "ICAO": null,
    "Latitude": "22.28124",
    "Longitude": "91.7925",
    "Altitude": null,
    "EDI": null
  },
  {
    "name": "GEC Convention Centre Helipad",
    "code": "339991",
    "type": "heliport",
    "location": "Chattogram (Chittagong)",
    "country_id": "302622",
    "country_code": "BD",
    "IATA": null,
    "ICAO": null,
    "Latitude": "22.35886",
    "Longitude": "91.82005",
    "Altitude": null,
    "EDI": null
  },
  {
    "name": "Bhasan Char Nayamasti Heliport 1",
    "code": "339992",
    "type": "heliport",
    "location": "Hatiya",
    "country_id": "302622",
    "country_code": "BD",
    "IATA": null,
    "ICAO": null,
    "Latitude": "22.3589",
    "Longitude": "91.36826",
    "Altitude": null,
    "EDI": null
  },
  {
    "name": "Tindu Heliport",
    "code": "349323",
    "type": "heliport",
    "location": "Tindu",
    "country_id": "302622",
    "country_code": "BD",
    "IATA": null,
    "ICAO": null,
    "Latitude": "21.72334",
    "Longitude": "92.45736",
    "Altitude": "354",
    "EDI": null
  },
  {
    "name": "Swarna Dweep West Helipad",
    "code": "339994",
    "type": "heliport",
    "location": "Noakhali",
    "country_id": "302622",
    "country_code": "BD",
    "IATA": null,
    "ICAO": null,
    "Latitude": "22.55542",
    "Longitude": "91.29466",
    "Altitude": null,
    "EDI": null
  },
  {
    "name": "Swarna Dweep Water Plant Helipad",
    "code": "339995",
    "type": "heliport",
    "location": "Noakhali",
    "country_id": "302622",
    "country_code": "BD",
    "IATA": null,
    "ICAO": null,
    "Latitude": "22.54405",
    "Longitude": "91.32899",
    "Altitude": null,
    "EDI": null
  },
  {
    "name": "Swarna Dweep North Helipad",
    "code": "339996",
    "type": "heliport",
    "location": "Noakhali",
    "country_id": "302622",
    "country_code": "BD",
    "IATA": null,
    "ICAO": null,
    "Latitude": "22.57064",
    "Longitude": "91.3128",
    "Altitude": null,
    "EDI": null
  },
  {
    "name": "Swarna Dweep Central Helipad",
    "code": "339997",
    "type": "heliport",
    "location": "Noakhali",
    "country_id": "302622",
    "country_code": "BD",
    "IATA": null,
    "ICAO": null,
    "Latitude": "22.56377",
    "Longitude": "91.30638",
    "Altitude": null,
    "EDI": null
  }
]