[
  {
    "name": "Lynden Pindling International Airport",
    "code": "4951",
    "type": "large_airport",
    "location": "Nassau",
    "country_id": "302728",
    "country_code": "BS",
    "IATA": "NAS",
    "ICAO": "MYNN",
    "Latitude": "25.039",
    "Longitude": "-77.466202",
    "Altitude": "16",
    "EDI": null
  },
  {
    "name": "George Town Airport",
    "code": "4940",
    "type": "closed",
    "location": "George Town",
    "country_id": "302728",
    "country_code": "BS",
    "IATA": null,
    "ICAO": null,
    "Latitude": "23.4667",
    "Longitude": "-75.7817",
    "Altitude": "5",
    "EDI": null
  },
  {
    "name": "Deadman's Cay Airport",
    "code": "4948",
    "type": "medium_airport",
    "location": "Deadman's Cay",
    "country_id": "302728",
    "country_code": "BS",
    "IATA": "LGI",
    "ICAO": "MYLD",
    "Latitude": "23.1790008545",
    "Longitude": "-75.09359741210001",
    "Altitude": "9",
    "EDI": null
  },
  {
    "name": "San Salvador Airport",
    "code": "4954",
    "type": "medium_airport",
    "location": "San Salvador",
    "country_id": "302728",
    "country_code": "BS",
    "IATA": "ZSA",
    "ICAO": "MYSM",
    "Latitude": "24.063299",
    "Longitude": "-74.524002",
    "Altitude": "24",
    "EDI": null
  },
  {
    "name": "Congo Town Airport",
    "code": "4926",
    "type": "medium_airport",
    "location": "Andros",
    "country_id": "302728",
    "country_code": "BS",
    "IATA": "TZN",
    "ICAO": "MYAK",
    "Latitude": "24.158701",
    "Longitude": "-77.589798",
    "Altitude": "15",
    "EDI": null
  },
  {
    "name": "Chub Cay Airport",
    "code": "4933",
    "type": "medium_airport",
    "location": "Chub Cay",
    "country_id": "302728",
    "country_code": "BS",
    "IATA": "CCZ",
    "ICAO": "MYBC",
    "Latitude": "25.417101",
    "Longitude": "-77.880898",
    "Altitude": "5",
    "EDI": null
  },
  {
    "name": "San Andros Airport",
    "code": "4928",
    "type": "medium_airport",
    "location": "Andros Island",
    "country_id": "302728",
    "country_code": "BS",
    "IATA": "SAQ",
    "ICAO": "MYAN",
    "Latitude": "25.053800582885742",
    "Longitude": "-78.04900360107422",
    "Altitude": "5",
    "EDI": null
  },
  {
    "name": "Mayaguana Airport",
    "code": "4950",
    "type": "medium_airport",
    "location": "Abraham Bay Settlement",
    "country_id": "302728",
    "country_code": "BS",
    "IATA": "MYG",
    "ICAO": "MYMM",
    "Latitude": "22.379499",
    "Longitude": "-73.013494",
    "Altitude": "11",
    "EDI": null
  },
  {
    "name": "Spring Point Airport",
    "code": "4929",
    "type": "medium_airport",
    "location": "Spring Point",
    "country_id": "302728",
    "country_code": "BS",
    "IATA": "AXP",
    "ICAO": "MYAP",
    "Latitude": "22.441799",
    "Longitude": "-73.970901",
    "Altitude": "11",
    "EDI": null
  },
  {
    "name": "Inagua Airport",
    "code": "4947",
    "type": "medium_airport",
    "location": "Matthew Town",
    "country_id": "302728",
    "country_code": "BS",
    "IATA": "IGA",
    "ICAO": "MYIG",
    "Latitude": "20.975",
    "Longitude": "-73.666901",
    "Altitude": "8",
    "EDI": null
  },
  {
    "name": "North Eleuthera Airport",
    "code": "4941",
    "type": "medium_airport",
    "location": "North Eleuthera",
    "country_id": "302728",
    "country_code": "BS",
    "IATA": "ELH",
    "ICAO": "MYEH",
    "Latitude": "25.474899292",
    "Longitude": "-76.6835021973",
    "Altitude": "13",
    "EDI": null
  },
  {
    "name": "Arthur's Town Airport",
    "code": "4936",
    "type": "medium_airport",
    "location": "Arthur's Town",
    "country_id": "302728",
    "country_code": "BS",
    "IATA": "ATC",
    "ICAO": "MYCA",
    "Latitude": "24.6294",
    "Longitude": "-75.673797",
    "Altitude": "18",
    "EDI": null
  },
  {
    "name": "South Bimini Airport",
    "code": "4935",
    "type": "medium_airport",
    "location": "South Bimini",
    "country_id": "302728",
    "country_code": "BS",
    "IATA": "BIM",
    "ICAO": "MYBS",
    "Latitude": "25.6998996735",
    "Longitude": "-79.2647018433",
    "Altitude": "10",
    "EDI": null
  },
  {
    "name": "Governor's Harbour Airport",
    "code": "4942",
    "type": "medium_airport",
    "location": "Governor's Harbour",
    "country_id": "302728",
    "country_code": "BS",
    "IATA": "GHB",
    "ICAO": "MYEM",
    "Latitude": "25.2847",
    "Longitude": "-76.331001",
    "Altitude": "26",
    "EDI": null
  },
  {
    "name": "Grand Bahama International Airport",
    "code": "4946",
    "type": "medium_airport",
    "location": "Freeport",
    "country_id": "302728",
    "country_code": "BS",
    "IATA": "FPO",
    "ICAO": "MYGF",
    "Latitude": "26.5587005615",
    "Longitude": "-78.695602417",
    "Altitude": "7",
    "EDI": null
  },
  {
    "name": "New Bight Airport",
    "code": "4937",
    "type": "medium_airport",
    "location": "Cat Island",
    "country_id": "302728",
    "country_code": "BS",
    "IATA": "TBI",
    "ICAO": "MYCB",
    "Latitude": "24.3153",
    "Longitude": "-75.452301",
    "Altitude": "5",
    "EDI": null
  },
  {
    "name": "Leonard M Thompson International Airport",
    "code": "4927",
    "type": "medium_airport",
    "location": "Marsh Harbour",
    "country_id": "302728",
    "country_code": "BS",
    "IATA": "MHH",
    "ICAO": "MYAM",
    "Latitude": "26.510711",
    "Longitude": "-77.084262",
    "Altitude": "6",
    "EDI": null
  },
  {
    "name": "Treasure Cay Airport",
    "code": "4931",
    "type": "medium_airport",
    "location": "Treasure Cay",
    "country_id": "302728",
    "country_code": "BS",
    "IATA": "TCB",
    "ICAO": "MYAT",
    "Latitude": "26.745300293",
    "Longitude": "-77.3912963867",
    "Altitude": "8",
    "EDI": null
  },
  {
    "name": "Exuma International Airport",
    "code": "4939",
    "type": "medium_airport",
    "location": "Moss Town",
    "country_id": "302728",
    "country_code": "BS",
    "IATA": "GGT",
    "ICAO": "MYEF",
    "Latitude": "23.562599",
    "Longitude": "-75.877998",
    "Altitude": "9",
    "EDI": null
  },
  {
    "name": "Andros Town Airport",
    "code": "4925",
    "type": "medium_airport",
    "location": "Andros Town",
    "country_id": "302728",
    "country_code": "BS",
    "IATA": "ASD",
    "ICAO": "MYAF",
    "Latitude": "24.697901",
    "Longitude": "-77.795601",
    "Altitude": "5",
    "EDI": null
  },
  {
    "name": "Duncan Town Airport",
    "code": "4952",
    "type": "medium_airport",
    "location": "Duncan Town",
    "country_id": "302728",
    "country_code": "BS",
    "IATA": "DCT",
    "ICAO": "MYRD",
    "Latitude": "22.181801",
    "Longitude": "-75.7295",
    "Altitude": "6",
    "EDI": null
  },
  {
    "name": "Clarence A. Bain Airport",
    "code": "4924",
    "type": "medium_airport",
    "location": "Mangrove Cay",
    "country_id": "302728",
    "country_code": "BS",
    "IATA": "MAY",
    "ICAO": "MYAB",
    "Latitude": "24.287701",
    "Longitude": "-77.684601",
    "Altitude": "19",
    "EDI": null
  },
  {
    "name": "Great Harbour Cay Airport",
    "code": "4934",
    "type": "medium_airport",
    "location": "Bullocks Harbour",
    "country_id": "302728",
    "country_code": "BS",
    "IATA": "GHC",
    "ICAO": "MYBG",
    "Latitude": "25.7383",
    "Longitude": "-77.840103",
    "Altitude": "18",
    "EDI": null
  },
  {
    "name": "Rock Sound Airport",
    "code": "4944",
    "type": "medium_airport",
    "location": "Rock Sound",
    "country_id": "302728",
    "country_code": "BS",
    "IATA": "RSD",
    "ICAO": "MYER",
    "Latitude": "24.8950787333",
    "Longitude": "-76.1768817902",
    "Altitude": "10",
    "EDI": null
  },
  {
    "name": "Normans Cay Airport",
    "code": "4943",
    "type": "medium_airport",
    "location": "Normans Cay",
    "country_id": "302728",
    "country_code": "BS",
    "IATA": "NMC",
    "ICAO": "MYEN",
    "Latitude": "24.594299",
    "Longitude": "-76.820198",
    "Altitude": "8",
    "EDI": null
  },
  {
    "name": "Spanish Cay Airport",
    "code": "4932",
    "type": "small_airport",
    "location": null,
    "country_id": "302728",
    "country_code": "BS",
    "IATA": null,
    "ICAO": null,
    "Latitude": "26.9503",
    "Longitude": "-77.5438",
    "Altitude": "10",
    "EDI": null
  },
  {
    "name": "Rum Cay International Airport",
    "code": "4953",
    "type": "small_airport",
    "location": "Port Nelson",
    "country_id": "302728",
    "country_code": "BS",
    "IATA": "RCY",
    "ICAO": "MYRP",
    "Latitude": "23.68344",
    "Longitude": "-74.836302",
    "Altitude": "15",
    "EDI": null
  },
  {
    "name": "Sandy Point Airport",
    "code": "4930",
    "type": "small_airport",
    "location": "Sandy Point",
    "country_id": "302728",
    "country_code": "BS",
    "IATA": null,
    "ICAO": null,
    "Latitude": "26.004698",
    "Longitude": "-77.395622",
    "Altitude": "8",
    "EDI": null
  },
  {
    "name": "Colonel Hill Airport",
    "code": "4938",
    "type": "medium_airport",
    "location": "Colonel Hill",
    "country_id": "302728",
    "country_code": "BS",
    "IATA": "CRI",
    "ICAO": "MYCI",
    "Latitude": "22.7456",
    "Longitude": "-74.182404",
    "Altitude": "5",
    "EDI": null
  },
  {
    "name": "Stella Maris Airport",
    "code": "4949",
    "type": "medium_airport",
    "location": "Stella Maris",
    "country_id": "302728",
    "country_code": "BS",
    "IATA": "SML",
    "ICAO": "MYLS",
    "Latitude": "23.582317",
    "Longitude": "-75.268621",
    "Altitude": "10",
    "EDI": null
  },
  {
    "name": "Staniel Cay Airport",
    "code": "4945",
    "type": "medium_airport",
    "location": "Staniel Cay",
    "country_id": "302728",
    "country_code": "BS",
    "IATA": "TYM",
    "ICAO": "MYES",
    "Latitude": "24.1691",
    "Longitude": "-76.439102",
    "Altitude": "5",
    "EDI": null
  },
  {
    "name": "Bimini North Seaplane Base",
    "code": "35303",
    "type": "seaplane_base",
    "location": "Bimini",
    "country_id": "302728",
    "country_code": "BS",
    "IATA": "NSB",
    "ICAO": null,
    "Latitude": "25.767",
    "Longitude": "-79.25",
    "Altitude": null,
    "EDI": null
  },
  {
    "name": "Nassau Paradise Island Airport",
    "code": "35304",
    "type": "closed",
    "location": "Nassau",
    "country_id": "302728",
    "country_code": "BS",
    "IATA": null,
    "ICAO": null,
    "Latitude": "25.078138",
    "Longitude": "-77.298689",
    "Altitude": null,
    "EDI": null
  },
  {
    "name": "Hard Bargain Airport",
    "code": "326433",
    "type": "medium_airport",
    "location": null,
    "country_id": "302728",
    "country_code": "BS",
    "IATA": null,
    "ICAO": null,
    "Latitude": "23.011194",
    "Longitude": "-74.905889",
    "Altitude": null,
    "EDI": null
  },
  {
    "name": "West End Airport",
    "code": "32679",
    "type": "small_airport",
    "location": "West End",
    "country_id": "302728",
    "country_code": "BS",
    "IATA": "WTD",
    "ICAO": "MYGW",
    "Latitude": "26.685301",
    "Longitude": "-78.974998",
    "Altitude": "5",
    "EDI": null
  },
  {
    "name": "Moores Island Airport",
    "code": "35340",
    "type": "small_airport",
    "location": "Moore's Island",
    "country_id": "302728",
    "country_code": "BS",
    "IATA": null,
    "ICAO": null,
    "Latitude": "26.317729",
    "Longitude": "-77.561331",
    "Altitude": "16",
    "EDI": null
  },
  {
    "name": "Hog Key Airport",
    "code": "35347",
    "type": "small_airport",
    "location": "Long Island",
    "country_id": "302728",
    "country_code": "BS",
    "IATA": null,
    "ICAO": null,
    "Latitude": "23.60070037841797",
    "Longitude": "-75.33930206298828",
    "Altitude": "5",
    "EDI": null
  },
  {
    "name": "Cape Santa Maria Airstrip",
    "code": "46380",
    "type": "small_airport",
    "location": "Galliot Cay",
    "country_id": "302728",
    "country_code": "BS",
    "IATA": null,
    "ICAO": null,
    "Latitude": "23.649674",
    "Longitude": "-75.32409",
    "Altitude": null,
    "EDI": null
  },
  {
    "name": "Walkers Cay Airport",
    "code": "29641",
    "type": "small_airport",
    "location": "Walkers Cay",
    "country_id": "302728",
    "country_code": "BS",
    "IATA": "WKR",
    "ICAO": "MYAW",
    "Latitude": "27.259656",
    "Longitude": "-78.400455",
    "Altitude": "10",
    "EDI": null
  },
  {
    "name": "Port Nelson Airstrip",
    "code": "46379",
    "type": "closed",
    "location": "Port Nelson",
    "country_id": "302728",
    "country_code": "BS",
    "IATA": null,
    "ICAO": null,
    "Latitude": "23.651411",
    "Longitude": "-74.845051",
    "Altitude": null,
    "EDI": null
  },
  {
    "name": "Cape Eleuthera Airport",
    "code": "35349",
    "type": "closed",
    "location": "Cape Eleuthera",
    "country_id": "302728",
    "country_code": "BS",
    "IATA": null,
    "ICAO": null,
    "Latitude": "24.7861",
    "Longitude": "-76.2962",
    "Altitude": "9",
    "EDI": null
  },
  {
    "name": "Big Whale Cay Airport",
    "code": "35341",
    "type": "small_airport",
    "location": "Big Whale Cay",
    "country_id": "302728",
    "country_code": "BS",
    "IATA": null,
    "ICAO": null,
    "Latitude": "25.399599",
    "Longitude": "-77.791",
    "Altitude": "16",
    "EDI": null
  },
  {
    "name": "Little Whale Cay Berry Islands Airport",
    "code": "35342",
    "type": "small_airport",
    "location": "Little Whale Cay",
    "country_id": "302728",
    "country_code": "BS",
    "IATA": null,
    "ICAO": null,
    "Latitude": "25.449349",
    "Longitude": "-77.759991",
    "Altitude": "5",
    "EDI": null
  },
  {
    "name": "Grand Bahama Auxiliary Airfield",
    "code": "31992",
    "type": "small_airport",
    "location": "High Rock",
    "country_id": "302728",
    "country_code": "BS",
    "IATA": null,
    "ICAO": null,
    "Latitude": "26.631901",
    "Longitude": "-78.3592",
    "Altitude": "8",
    "EDI": null
  },
  {
    "name": "Cat Cay Airport",
    "code": "30866",
    "type": "small_airport",
    "location": "North Cat Cay",
    "country_id": "302728",
    "country_code": "BS",
    "IATA": "CXY",
    "ICAO": "MYCC",
    "Latitude": "25.554425",
    "Longitude": "-79.275404",
    "Altitude": "14",
    "EDI": null
  },
  {
    "name": "Cay Sal Airport",
    "code": "31986",
    "type": "small_airport",
    "location": "Cay Sal",
    "country_id": "302728",
    "country_code": "BS",
    "IATA": null,
    "ICAO": null,
    "Latitude": "23.697625",
    "Longitude": "-80.389781",
    "Altitude": "5",
    "EDI": null
  },
  {
    "name": "Ocean Cay Heliport",
    "code": "326434",
    "type": "heliport",
    "location": "Ocean Cay",
    "country_id": "302728",
    "country_code": "BS",
    "IATA": null,
    "ICAO": null,
    "Latitude": "25.424885",
    "Longitude": "-79.210192",
    "Altitude": "5",
    "EDI": null
  },
  {
    "name": "Cistern Field",
    "code": "35343",
    "type": "closed",
    "location": "Cistern Cay",
    "country_id": "302728",
    "country_code": "BS",
    "IATA": null,
    "ICAO": null,
    "Latitude": "25.7787",
    "Longitude": "-77.885201",
    "Altitude": "18",
    "EDI": null
  },
  {
    "name": "Hawks Nest Airport",
    "code": "31985",
    "type": "small_airport",
    "location": "Hawks Nest Creek",
    "country_id": "302728",
    "country_code": "BS",
    "IATA": null,
    "ICAO": null,
    "Latitude": "24.15449",
    "Longitude": "-75.51796",
    "Altitude": "3",
    "EDI": null
  },
  {
    "name": "Cutlass Bay Airport",
    "code": "31987",
    "type": "closed",
    "location": "Cutlass Bay",
    "country_id": "302728",
    "country_code": "BS",
    "IATA": null,
    "ICAO": null,
    "Latitude": "24.149141",
    "Longitude": "-75.398",
    "Altitude": "3",
    "EDI": null
  }
]