[
  {
    "name": "Félix-Houphouët-Boigny International Airport",
    "code": "2096",
    "type": "medium_airport",
    "location": "Abidjan",
    "country_id": "302564",
    "country_code": "CI",
    "IATA": "ABJ",
    "ICAO": "DIAP",
    "Latitude": "5.26139",
    "Longitude": "-3.92629",
    "Altitude": "21",
    "EDI": null
  },
  {
    "name": "Bouaké Airport",
    "code": "2097",
    "type": "medium_airport",
    "location": "Bouaké",
    "country_id": "302564",
    "country_code": "CI",
    "IATA": "BYK",
    "ICAO": "DIBK",
    "Latitude": "7.7388",
    "Longitude": "-5.07367",
    "Altitude": "1230",
    "EDI": null
  },
  {
    "name": "San Pedro Airport",
    "code": "2101",
    "type": "medium_airport",
    "location": null,
    "country_id": "302564",
    "country_code": "CI",
    "IATA": "SPY",
    "ICAO": "DISP",
    "Latitude": "4.74672",
    "Longitude": "-6.66082",
    "Altitude": "26",
    "EDI": null
  },
  {
    "name": "Man Airport",
    "code": "2100",
    "type": "medium_airport",
    "location": null,
    "country_id": "302564",
    "country_code": "CI",
    "IATA": "MJC",
    "ICAO": "DIMN",
    "Latitude": "7.27207",
    "Longitude": "-7.58736",
    "Altitude": "1089",
    "EDI": null
  },
  {
    "name": "Daloa Airport",
    "code": "2098",
    "type": "medium_airport",
    "location": null,
    "country_id": "302564",
    "country_code": "CI",
    "IATA": "DJO",
    "ICAO": "DIDL",
    "Latitude": "6.79281",
    "Longitude": "-6.47319",
    "Altitude": "823",
    "EDI": null
  },
  {
    "name": "Korhogo Airport",
    "code": "2099",
    "type": "medium_airport",
    "location": "Korhogo",
    "country_id": "302564",
    "country_code": "CI",
    "IATA": "HGO",
    "ICAO": "DIKO",
    "Latitude": "9.38718",
    "Longitude": "-5.55666",
    "Altitude": "1214",
    "EDI": null
  },
  {
    "name": "Yamoussoukro Airport",
    "code": "2102",
    "type": "medium_airport",
    "location": "Yamoussoukro",
    "country_id": "302564",
    "country_code": "CI",
    "IATA": "ASK",
    "ICAO": "DIYO",
    "Latitude": "6.9031701088",
    "Longitude": "-5.36558008194",
    "Altitude": "699",
    "EDI": null
  },
  {
    "name": "Zagné Airport",
    "code": "355241",
    "type": "small_airport",
    "location": "Zagné",
    "country_id": "302564",
    "country_code": "CI",
    "IATA": null,
    "ICAO": null,
    "Latitude": "6.215391",
    "Longitude": "-7.500315",
    "Altitude": "732",
    "EDI": null
  },
  {
    "name": "Ouango Fitini Airport",
    "code": "32095",
    "type": "small_airport",
    "location": "Ouango Fitini",
    "country_id": "302564",
    "country_code": "CI",
    "IATA": "OFI",
    "ICAO": "DIOF",
    "Latitude": "9.6",
    "Longitude": "-4.05",
    "Altitude": "974",
    "EDI": null
  },
  {
    "name": "Gagnoa Airport",
    "code": "31527",
    "type": "small_airport",
    "location": "Gagnoa",
    "country_id": "302564",
    "country_code": "CI",
    "IATA": "GGN",
    "ICAO": "DIGA",
    "Latitude": "6.102855",
    "Longitude": "-5.986809",
    "Altitude": "732",
    "EDI": null
  },
  {
    "name": "Boundiali Airport",
    "code": "30805",
    "type": "small_airport",
    "location": "Boundiali",
    "country_id": "302564",
    "country_code": "CI",
    "IATA": "BXI",
    "ICAO": "DIBI",
    "Latitude": "9.540571",
    "Longitude": "-6.469831",
    "Altitude": "1286",
    "EDI": null
  },
  {
    "name": "Ferkessédougou Airport",
    "code": "31125",
    "type": "closed",
    "location": "Ferkessédougou",
    "country_id": "302564",
    "country_code": "CI",
    "IATA": null,
    "ICAO": null,
    "Latitude": "9.592774",
    "Longitude": "-5.23344",
    "Altitude": "1102",
    "EDI": null
  },
  {
    "name": "Katiola Airport",
    "code": "313815",
    "type": "small_airport",
    "location": "Katiola",
    "country_id": "302564",
    "country_code": "CI",
    "IATA": "KTC",
    "ICAO": null,
    "Latitude": "8.132858",
    "Longitude": "-5.06487",
    "Altitude": "1026",
    "EDI": null
  },
  {
    "name": "Séguéla Airport",
    "code": "32280",
    "type": "small_airport",
    "location": "Séguéla",
    "country_id": "302564",
    "country_code": "CI",
    "IATA": "SEO",
    "ICAO": "DISG",
    "Latitude": "7.96",
    "Longitude": "-6.644167",
    "Altitude": "1056",
    "EDI": null
  },
  {
    "name": "Mahana Airport",
    "code": "316459",
    "type": "small_airport",
    "location": "Touba",
    "country_id": "302564",
    "country_code": "CI",
    "IATA": "TOZ",
    "ICAO": "DITM",
    "Latitude": "8.2934",
    "Longitude": "-7.674",
    "Altitude": "1583",
    "EDI": null
  },
  {
    "name": "Soko Airport",
    "code": "30692",
    "type": "small_airport",
    "location": "Bondoukou",
    "country_id": "302564",
    "country_code": "CI",
    "IATA": "BDK",
    "ICAO": "DIBU",
    "Latitude": "8.01722",
    "Longitude": "-2.76194",
    "Altitude": "1247",
    "EDI": null
  },
  {
    "name": "Bouna Airport",
    "code": "30790",
    "type": "small_airport",
    "location": "Bouna",
    "country_id": "302564",
    "country_code": "CI",
    "IATA": "BQO",
    "ICAO": "DIBN",
    "Latitude": "9.255556",
    "Longitude": "-3.033333",
    "Altitude": "1148",
    "EDI": null
  },
  {
    "name": "Guiglo Airport",
    "code": "31528",
    "type": "small_airport",
    "location": "Guiglo",
    "country_id": "302564",
    "country_code": "CI",
    "IATA": "GGO",
    "ICAO": "DIGL",
    "Latitude": "6.534711",
    "Longitude": "-7.526847",
    "Altitude": "722",
    "EDI": null
  },
  {
    "name": "Cosrou Airport",
    "code": "340297",
    "type": "small_airport",
    "location": "Cosrou",
    "country_id": "302564",
    "country_code": "CI",
    "IATA": null,
    "ICAO": null,
    "Latitude": "5.3156",
    "Longitude": "-4.6459",
    "Altitude": null,
    "EDI": null
  },
  {
    "name": "Dabou Airport",
    "code": "30915",
    "type": "small_airport",
    "location": "Dabou",
    "country_id": "302564",
    "country_code": "CI",
    "IATA": null,
    "ICAO": null,
    "Latitude": "5.351385116577148",
    "Longitude": "-4.4034576416015625",
    "Altitude": "141",
    "EDI": null
  },
  {
    "name": "Dimbokro Airport",
    "code": "30918",
    "type": "small_airport",
    "location": "Dimbokro",
    "country_id": "302564",
    "country_code": "CI",
    "IATA": "DIM",
    "ICAO": "DIDK",
    "Latitude": "6.65167",
    "Longitude": "-4.64056",
    "Altitude": "344",
    "EDI": null
  },
  {
    "name": "Bocanda Airport",
    "code": "30914",
    "type": "small_airport",
    "location": "Bocanda",
    "country_id": "302564",
    "country_code": "CI",
    "IATA": null,
    "ICAO": null,
    "Latitude": "7.033",
    "Longitude": "-4.533",
    "Altitude": "427",
    "EDI": null
  },
  {
    "name": "Odienne Airport",
    "code": "31742",
    "type": "small_airport",
    "location": "Odienne",
    "country_id": "302564",
    "country_code": "CI",
    "IATA": "KEO",
    "ICAO": "DIOD",
    "Latitude": "9.539457",
    "Longitude": "-7.56134",
    "Altitude": "1365",
    "EDI": null
  },
  {
    "name": "Assouindé Airport",
    "code": "340296",
    "type": "small_airport",
    "location": "Assouindé",
    "country_id": "302564",
    "country_code": "CI",
    "IATA": null,
    "ICAO": null,
    "Latitude": "5.17544",
    "Longitude": "-3.47049",
    "Altitude": "23",
    "EDI": null
  },
  {
    "name": "Aboisso Airport",
    "code": "323785",
    "type": "small_airport",
    "location": "Aboisso",
    "country_id": "302564",
    "country_code": "CI",
    "IATA": "ABO",
    "ICAO": "DIAO",
    "Latitude": "5.461944",
    "Longitude": "-3.234722",
    "Altitude": "95",
    "EDI": null
  },
  {
    "name": "Abengourou Airport",
    "code": "32098",
    "type": "small_airport",
    "location": "Abengourou",
    "country_id": "302564",
    "country_code": "CI",
    "IATA": "OGO",
    "ICAO": "DIAU",
    "Latitude": "6.71556",
    "Longitude": "-3.47028",
    "Altitude": "676",
    "EDI": null
  },
  {
    "name": "Wèoulo Airport",
    "code": "340298",
    "type": "small_airport",
    "location": "Wèoulo",
    "country_id": "302564",
    "country_code": "CI",
    "IATA": null,
    "ICAO": null,
    "Latitude": "4.6874",
    "Longitude": "-7.0773",
    "Altitude": null,
    "EDI": null
  },
  {
    "name": "Sassandra Airport",
    "code": "32750",
    "type": "small_airport",
    "location": "Sassandra",
    "country_id": "302564",
    "country_code": "CI",
    "IATA": "ZSS",
    "ICAO": "DISS",
    "Latitude": "4.928888",
    "Longitude": "-6.133156",
    "Altitude": "203",
    "EDI": null
  },
  {
    "name": "Nero-Mer Airport",
    "code": "30917",
    "type": "small_airport",
    "location": "Grand-Béréby",
    "country_id": "302564",
    "country_code": "CI",
    "IATA": "BBV",
    "ICAO": "DIGN",
    "Latitude": "4.64341306686",
    "Longitude": "-6.923961639400001",
    "Altitude": "20",
    "EDI": null
  },
  {
    "name": "Tabou Airport",
    "code": "28483",
    "type": "small_airport",
    "location": "Tabou",
    "country_id": "302564",
    "country_code": "CI",
    "IATA": "TXU",
    "ICAO": "DITB",
    "Latitude": "4.437809467315674",
    "Longitude": "-7.362728118896484",
    "Altitude": "39",
    "EDI": null
  },
  {
    "name": "Alassane Ouattara Helipad",
    "code": "341665",
    "type": "heliport",
    "location": "Abidjan",
    "country_id": "302564",
    "country_code": "CI",
    "IATA": null,
    "ICAO": null,
    "Latitude": "5.32812",
    "Longitude": "-3.97654",
    "Altitude": null,
    "EDI": null
  }
]