[
  {
    "name": "José Joaquín de Olmedo International Airport",
    "code": "6056",
    "type": "large_airport",
    "location": "Guayaquil",
    "country_id": "302794",
    "country_code": "EC",
    "IATA": "GYE",
    "ICAO": "SEGU",
    "Latitude": "-2.15742",
    "Longitude": "-79.883598",
    "Altitude": "19",
    "EDI": null
  },
  {
    "name": "Mariscal Lamar Airport",
    "code": "6054",
    "type": "medium_airport",
    "location": "Cuenca",
    "country_id": "302794",
    "country_code": "EC",
    "IATA": "CUE",
    "ICAO": "SECU",
    "Latitude": "-2.88947",
    "Longitude": "-78.984398",
    "Altitude": "8306",
    "EDI": null
  },
  {
    "name": "Coronel E Carvajal Airport",
    "code": "6063",
    "type": "medium_airport",
    "location": "Macas",
    "country_id": "302794",
    "country_code": "EC",
    "IATA": "XMS",
    "ICAO": "SEMC",
    "Latitude": "-2.2991700172424316",
    "Longitude": "-78.12079620361328",
    "Altitude": "3452",
    "EDI": null
  },
  {
    "name": "Eloy Alfaro International Airport",
    "code": "6066",
    "type": "medium_airport",
    "location": "Manta",
    "country_id": "302794",
    "country_code": "EC",
    "IATA": "MEC",
    "ICAO": "SEMT",
    "Latitude": "-0.9460780024528503",
    "Longitude": "-80.67880249023438",
    "Altitude": "48",
    "EDI": null
  },
  {
    "name": "Francisco De Orellana Airport",
    "code": "6053",
    "type": "medium_airport",
    "location": "Coca",
    "country_id": "302794",
    "country_code": "EC",
    "IATA": "OCC",
    "ICAO": "SECO",
    "Latitude": "-0.462886",
    "Longitude": "-76.986801",
    "Altitude": "834",
    "EDI": null
  },
  {
    "name": "Lieutenant Colonel Luis A. Mantilla International Airport",
    "code": "6086",
    "type": "medium_airport",
    "location": "Tulcán",
    "country_id": "302794",
    "country_code": "EC",
    "IATA": "TUA",
    "ICAO": "SETU",
    "Latitude": "0.809506",
    "Longitude": "-77.708099",
    "Altitude": "9649",
    "EDI": null
  },
  {
    "name": "Cotopaxi International Airport",
    "code": "6061",
    "type": "medium_airport",
    "location": "Latacunga",
    "country_id": "302794",
    "country_code": "EC",
    "IATA": "LTX",
    "ICAO": null,
    "Latitude": "-0.906833",
    "Longitude": "-78.615799",
    "Altitude": "9205",
    "EDI": null
  },
  {
    "name": "Mariscal Sucre Air Base",
    "code": "6073",
    "type": "heliport",
    "location": "Quito",
    "country_id": "302794",
    "country_code": "EC",
    "IATA": null,
    "ICAO": null,
    "Latitude": "-0.136782",
    "Longitude": "-78.490598",
    "Altitude": "9228",
    "EDI": null
  },
  {
    "name": "General Ulpiano Paez Airport",
    "code": "6076",
    "type": "medium_airport",
    "location": "Salinas",
    "country_id": "302794",
    "country_code": "EC",
    "IATA": "SNC",
    "ICAO": "SESA",
    "Latitude": "-2.210057",
    "Longitude": "-80.985067",
    "Altitude": "18",
    "EDI": null
  },
  {
    "name": "Tarapoa Airport",
    "code": "6085",
    "type": "medium_airport",
    "location": "Tarapoa",
    "country_id": "302794",
    "country_code": "EC",
    "IATA": "TPC",
    "ICAO": "SETR",
    "Latitude": "-0.122956",
    "Longitude": "-76.337799",
    "Altitude": "814",
    "EDI": null
  },
  {
    "name": "Jose Maria Velasco Ibarra Airport",
    "code": "6062",
    "type": "medium_airport",
    "location": "Macará",
    "country_id": "302794",
    "country_code": "EC",
    "IATA": "MRR",
    "ICAO": "SEMA",
    "Latitude": "-4.37823009491",
    "Longitude": "-79.94100189210002",
    "Altitude": "1508",
    "EDI": null
  },
  {
    "name": "Chachoán Regional Airport",
    "code": "6051",
    "type": "medium_airport",
    "location": "Ambato",
    "country_id": "302794",
    "country_code": "EC",
    "IATA": "ATF",
    "ICAO": "SEAM",
    "Latitude": "-1.21207",
    "Longitude": "-78.5746",
    "Altitude": "8502",
    "EDI": null
  },
  {
    "name": "General Manuel Serrano Airport",
    "code": "6064",
    "type": "closed",
    "location": "Machala",
    "country_id": "302794",
    "country_code": "EC",
    "IATA": null,
    "ICAO": null,
    "Latitude": "-3.2689",
    "Longitude": "-79.961601",
    "Altitude": "11",
    "EDI": null
  },
  {
    "name": "Seymour Galapagos Ecological Airport",
    "code": "6055",
    "type": "small_airport",
    "location": "Isla Baltra",
    "country_id": "302794",
    "country_code": "EC",
    "IATA": "GPS",
    "ICAO": "SEGS",
    "Latitude": "-0.453758",
    "Longitude": "-90.2659",
    "Altitude": "207",
    "EDI": null
  },
  {
    "name": "El Carmen Airport",
    "code": "6065",
    "type": "small_airport",
    "location": "Montalvo",
    "country_id": "302794",
    "country_code": "EC",
    "IATA": null,
    "ICAO": null,
    "Latitude": "-2.06701",
    "Longitude": "-76.9757",
    "Altitude": "960",
    "EDI": null
  },
  {
    "name": "Km 192 Airport",
    "code": "6059",
    "type": "small_airport",
    "location": "Vía Quinindé-La Concordia",
    "country_id": "302794",
    "country_code": "EC",
    "IATA": null,
    "ICAO": null,
    "Latitude": "0.18465",
    "Longitude": "-79.391181",
    "Altitude": "1247",
    "EDI": null
  },
  {
    "name": "Hacienda Clementina Airport",
    "code": "6052",
    "type": "small_airport",
    "location": "Pozuelos",
    "country_id": "302794",
    "country_code": "EC",
    "IATA": null,
    "ICAO": null,
    "Latitude": "-1.7062699794769287",
    "Longitude": "-79.37889862060547",
    "Altitude": "328",
    "EDI": null
  },
  {
    "name": "Mayor Galo Torres Airport",
    "code": "6082",
    "type": "small_airport",
    "location": "Tena",
    "country_id": "302794",
    "country_code": "EC",
    "IATA": null,
    "ICAO": null,
    "Latitude": "-0.986767",
    "Longitude": "-77.819504",
    "Altitude": "1708",
    "EDI": null
  },
  {
    "name": "Atahualpa Airport",
    "code": "6058",
    "type": "closed",
    "location": "Ibarra",
    "country_id": "302794",
    "country_code": "EC",
    "IATA": null,
    "ICAO": null,
    "Latitude": "0.338419",
    "Longitude": "-78.136398",
    "Altitude": "7304",
    "EDI": null
  },
  {
    "name": "Chimborazo Airport",
    "code": "6074",
    "type": "small_airport",
    "location": "Riobamba",
    "country_id": "302794",
    "country_code": "EC",
    "IATA": null,
    "ICAO": null,
    "Latitude": "-1.653324",
    "Longitude": "-78.656342",
    "Altitude": "9151",
    "EDI": null
  },
  {
    "name": "Maragrosa Airport",
    "code": "6067",
    "type": "small_airport",
    "location": "Puerto Balao",
    "country_id": "302794",
    "country_code": "EC",
    "IATA": null,
    "ICAO": null,
    "Latitude": "-2.8511",
    "Longitude": "-79.803596",
    "Altitude": "18",
    "EDI": null
  },
  {
    "name": "La Puntilla Airport",
    "code": "2180",
    "type": "small_airport",
    "location": "La Puntilla",
    "country_id": "302794",
    "country_code": "EC",
    "IATA": null,
    "ICAO": null,
    "Latitude": "-2.443333",
    "Longitude": "-79.399167",
    "Altitude": "195",
    "EDI": null
  },
  {
    "name": "Carlos Concha Torres International Airport",
    "code": "6084",
    "type": "medium_airport",
    "location": "Tachina",
    "country_id": "302794",
    "country_code": "EC",
    "IATA": "ESM",
    "ICAO": "SETN",
    "Latitude": "0.978519",
    "Longitude": "-79.626602",
    "Altitude": "32",
    "EDI": null
  },
  {
    "name": "Santa Rosa - Artillery Colonel Victor Larrea International Airport",
    "code": "6075",
    "type": "medium_airport",
    "location": "Santa Rosa",
    "country_id": "302794",
    "country_code": "EC",
    "IATA": "ETR",
    "ICAO": "SERO",
    "Latitude": "-3.441986",
    "Longitude": "-79.996957",
    "Altitude": "20",
    "EDI": null
  },
  {
    "name": "Reales Tamarindos Airport",
    "code": "6071",
    "type": "medium_airport",
    "location": "Portoviejo",
    "country_id": "302794",
    "country_code": "EC",
    "IATA": "PVO",
    "ICAO": "SEPV",
    "Latitude": "-1.04165",
    "Longitude": "-80.472198",
    "Altitude": "130",
    "EDI": null
  },
  {
    "name": "San Cristóbal Airport",
    "code": "6079",
    "type": "small_airport",
    "location": "Puerto Baquerizo Moreno",
    "country_id": "302794",
    "country_code": "EC",
    "IATA": "SCY",
    "ICAO": "SEST",
    "Latitude": "-0.910206",
    "Longitude": "-89.617401",
    "Altitude": "62",
    "EDI": null
  },
  {
    "name": "Ciudad de Catamayo Airport",
    "code": "6083",
    "type": "small_airport",
    "location": "La Toma (Catamayo)",
    "country_id": "302794",
    "country_code": "EC",
    "IATA": "LOH",
    "ICAO": null,
    "Latitude": "-3.995606",
    "Longitude": "-79.371902",
    "Altitude": "4056",
    "EDI": null
  },
  {
    "name": "Celia María Airport",
    "code": "2177",
    "type": "small_airport",
    "location": "Pasaje",
    "country_id": "302794",
    "country_code": "EC",
    "IATA": null,
    "ICAO": null,
    "Latitude": "-3.27905",
    "Longitude": "-79.80118",
    "Altitude": "112",
    "EDI": null
  },
  {
    "name": "Rio Amazonas Airport",
    "code": "6078",
    "type": "small_airport",
    "location": "Shell Mera",
    "country_id": "302794",
    "country_code": "EC",
    "IATA": "PTZ",
    "ICAO": "SESM",
    "Latitude": "-1.50524",
    "Longitude": "-78.062698",
    "Altitude": "3465",
    "EDI": null
  },
  {
    "name": "Patuca Airport",
    "code": "6069",
    "type": "small_airport",
    "location": "Patuca",
    "country_id": "302794",
    "country_code": "EC",
    "IATA": null,
    "ICAO": null,
    "Latitude": "-2.75172",
    "Longitude": "-78.263603",
    "Altitude": "1781",
    "EDI": null
  },
  {
    "name": "Gualaquiza Airport",
    "code": "6057",
    "type": "small_airport",
    "location": "Santiago",
    "country_id": "302794",
    "country_code": "EC",
    "IATA": null,
    "ICAO": null,
    "Latitude": "-3.42321",
    "Longitude": "-78.567001",
    "Altitude": "2640",
    "EDI": null
  },
  {
    "name": "Quevedo Airport",
    "code": "6072",
    "type": "small_airport",
    "location": "Quevedo",
    "country_id": "302794",
    "country_code": "EC",
    "IATA": null,
    "ICAO": null,
    "Latitude": "-0.989013",
    "Longitude": "-79.465571",
    "Altitude": "350",
    "EDI": null
  },
  {
    "name": "Hacienda La Julia Airport",
    "code": "6060",
    "type": "small_airport",
    "location": "Julia",
    "country_id": "302794",
    "country_code": "EC",
    "IATA": null,
    "ICAO": null,
    "Latitude": "-1.70438",
    "Longitude": "-79.552299",
    "Altitude": "50",
    "EDI": null
  },
  {
    "name": "Vinces Airport",
    "code": "2175",
    "type": "small_airport",
    "location": "Vinces",
    "country_id": "302794",
    "country_code": "EC",
    "IATA": null,
    "ICAO": null,
    "Latitude": "-1.59611",
    "Longitude": "-79.726097",
    "Altitude": "32",
    "EDI": null
  },
  {
    "name": "Amable Calle Gutierrez Airport",
    "code": "6070",
    "type": "small_airport",
    "location": "Pasaje",
    "country_id": "302794",
    "country_code": "EC",
    "IATA": null,
    "ICAO": null,
    "Latitude": "-3.31967",
    "Longitude": "-79.769203",
    "Altitude": "22",
    "EDI": null
  },
  {
    "name": "Solbananas Airport",
    "code": "2178",
    "type": "small_airport",
    "location": "Buenavista",
    "country_id": "302794",
    "country_code": "EC",
    "IATA": null,
    "ICAO": null,
    "Latitude": "-3.34094",
    "Longitude": "-79.8638",
    "Altitude": "9",
    "EDI": null
  },
  {
    "name": "Km 60 Airport",
    "code": "2176",
    "type": "small_airport",
    "location": "Luz de América",
    "country_id": "302794",
    "country_code": "EC",
    "IATA": null,
    "ICAO": null,
    "Latitude": "-0.536183",
    "Longitude": "-79.371976",
    "Altitude": "1640",
    "EDI": null
  },
  {
    "name": "Los Perales Airport",
    "code": "6080",
    "type": "small_airport",
    "location": "Bahía de Caraquez",
    "country_id": "302794",
    "country_code": "EC",
    "IATA": "BHA",
    "ICAO": "SESV",
    "Latitude": "-0.608111",
    "Longitude": "-80.402702",
    "Altitude": "10",
    "EDI": null
  },
  {
    "name": "Taura Air Base",
    "code": "6081",
    "type": "small_airport",
    "location": "Virgen de Fatima",
    "country_id": "302794",
    "country_code": "EC",
    "IATA": null,
    "ICAO": null,
    "Latitude": "-2.26104",
    "Longitude": "-79.680199",
    "Altitude": "56",
    "EDI": null
  },
  {
    "name": "Las Peñas Airport",
    "code": "2172",
    "type": "small_airport",
    "location": "Puerto Grande",
    "country_id": "302794",
    "country_code": "EC",
    "IATA": null,
    "ICAO": null,
    "Latitude": "-2.94716",
    "Longitude": "-80.1007",
    "Altitude": "3",
    "EDI": null
  },
  {
    "name": "Guabital Airport",
    "code": "2171",
    "type": "small_airport",
    "location": "Soledad",
    "country_id": "302794",
    "country_code": "EC",
    "IATA": null,
    "ICAO": null,
    "Latitude": "-2.773399",
    "Longitude": "-79.702411",
    "Altitude": "45",
    "EDI": null
  },
  {
    "name": "Alba Elena Airport",
    "code": "2170",
    "type": "small_airport",
    "location": "Bucay",
    "country_id": "302794",
    "country_code": "EC",
    "IATA": null,
    "ICAO": null,
    "Latitude": "-2.173581",
    "Longitude": "-79.280763",
    "Altitude": "150",
    "EDI": null
  },
  {
    "name": "Santo Domingo de Los Colorados Airport",
    "code": "6077",
    "type": "small_airport",
    "location": "Santo Domingo de Los Colorades",
    "country_id": "302794",
    "country_code": "EC",
    "IATA": null,
    "ICAO": null,
    "Latitude": "-0.248288",
    "Longitude": "-79.209062",
    "Altitude": "1640",
    "EDI": null
  },
  {
    "name": "Mariscal Sucre International Airport",
    "code": "308273",
    "type": "large_airport",
    "location": "Quito",
    "country_id": "302794",
    "country_code": "EC",
    "IATA": "UIO",
    "ICAO": "SEQM",
    "Latitude": "-0.125399",
    "Longitude": "-78.354306",
    "Altitude": "7841",
    "EDI": null
  },
  {
    "name": "Jumandy Airport",
    "code": "309411",
    "type": "medium_airport",
    "location": "Ahuano",
    "country_id": "302794",
    "country_code": "EC",
    "IATA": "TNW",
    "ICAO": "SEJD",
    "Latitude": "-1.060185",
    "Longitude": "-77.580525",
    "Altitude": "1234",
    "EDI": null
  },
  {
    "name": "General Villamil Airport",
    "code": "41131",
    "type": "small_airport",
    "location": "Puerto Villamil",
    "country_id": "302794",
    "country_code": "EC",
    "IATA": "IBB",
    "ICAO": "SEII",
    "Latitude": "-0.942628",
    "Longitude": "-90.953003",
    "Altitude": "35",
    "EDI": null
  },
  {
    "name": "Jempentza Airstrip",
    "code": "513924",
    "type": "small_airport",
    "location": "Jempentza",
    "country_id": "302794",
    "country_code": "EC",
    "IATA": null,
    "ICAO": null,
    "Latitude": "-2.744252",
    "Longitude": "-77.487304",
    "Altitude": "735",
    "EDI": null
  },
  {
    "name": "Sebastián Airstrip",
    "code": "514878",
    "type": "small_airport",
    "location": "Morona Santiago",
    "country_id": "302794",
    "country_code": "EC",
    "IATA": null,
    "ICAO": null,
    "Latitude": "-2.641853",
    "Longitude": "-77.15722",
    "Altitude": "845",
    "EDI": null
  },
  {
    "name": "Nases Airstrip",
    "code": "513553",
    "type": "small_airport",
    "location": "Huasaga",
    "country_id": "302794",
    "country_code": "EC",
    "IATA": null,
    "ICAO": null,
    "Latitude": "-2.559842",
    "Longitude": "-77.172101",
    "Altitude": "900",
    "EDI": null
  },
  {
    "name": "Kayantza Airstrip",
    "code": "514877",
    "type": "small_airport",
    "location": "Kayantza",
    "country_id": "302794",
    "country_code": "EC",
    "IATA": null,
    "ICAO": null,
    "Latitude": "-2.174349",
    "Longitude": "-77.368609",
    "Altitude": "1274",
    "EDI": null
  }
]