[
  {
    "name": "Vágar Airport",
    "code": "2559",
    "type": "medium_airport",
    "location": "Vágar",
    "country_id": "302686",
    "country_code": "FO",
    "IATA": "FAE",
    "ICAO": "EKVG",
    "Latitude": "62.063256",
    "Longitude": "-7.275782",
    "Altitude": "280",
    "EDI": null
  },
  {
    "name": "Froðba Heliport",
    "code": "44039",
    "type": "heliport",
    "location": "Froðba",
    "country_id": "302686",
    "country_code": "FO",
    "IATA": null,
    "ICAO": null,
    "Latitude": "61.543701",
    "Longitude": "-6.77442",
    "Altitude": "77",
    "EDI": null
  },
  {
    "name": "Klaksvík Heliport",
    "code": "44040",
    "type": "heliport",
    "location": "Klaksvík",
    "country_id": "302686",
    "country_code": "FO",
    "IATA": null,
    "ICAO": null,
    "Latitude": "62.217619",
    "Longitude": "-6.576274",
    "Altitude": "263",
    "EDI": null
  },
  {
    "name": "Mykines Heliport",
    "code": "44041",
    "type": "heliport",
    "location": "Mykines",
    "country_id": "302686",
    "country_code": "FO",
    "IATA": null,
    "ICAO": null,
    "Latitude": "62.102169",
    "Longitude": "-7.645934",
    "Altitude": "110",
    "EDI": null
  },
  {
    "name": "Skúvoy Heliport",
    "code": "44042",
    "type": "heliport",
    "location": "Skúvoy",
    "country_id": "302686",
    "country_code": "FO",
    "IATA": null,
    "ICAO": null,
    "Latitude": "61.769556",
    "Longitude": "-6.80349",
    "Altitude": "70",
    "EDI": null
  },
  {
    "name": "Stóra Dímun Heliport",
    "code": "44043",
    "type": "heliport",
    "location": "Stóra Dímun",
    "country_id": "302686",
    "country_code": "FO",
    "IATA": null,
    "ICAO": null,
    "Latitude": "61.685315",
    "Longitude": "-6.758303",
    "Altitude": "305",
    "EDI": null
  },
  {
    "name": "Svínoy Heliport",
    "code": "44044",
    "type": "heliport",
    "location": "Svínoy",
    "country_id": "302686",
    "country_code": "FO",
    "IATA": null,
    "ICAO": null,
    "Latitude": "62.276632",
    "Longitude": "-6.341524",
    "Altitude": "30",
    "EDI": null
  },
  {
    "name": "Boðanes Heliport",
    "code": "44045",
    "type": "heliport",
    "location": "Tórshavn",
    "country_id": "302686",
    "country_code": "FO",
    "IATA": null,
    "ICAO": null,
    "Latitude": "62.021684",
    "Longitude": "-6.757452",
    "Altitude": "68",
    "EDI": null
  },
  {
    "name": "Hattarvík Heliport",
    "code": "338479",
    "type": "heliport",
    "location": "Hattarvík",
    "country_id": "302686",
    "country_code": "FO",
    "IATA": null,
    "ICAO": null,
    "Latitude": "62.330297",
    "Longitude": "-6.276734",
    "Altitude": null,
    "EDI": null
  },
  {
    "name": "Kirkja Heliport",
    "code": "338481",
    "type": "heliport",
    "location": "Kirkja",
    "country_id": "302686",
    "country_code": "FO",
    "IATA": null,
    "ICAO": null,
    "Latitude": "62.317141",
    "Longitude": "-6.313314",
    "Altitude": "93",
    "EDI": null
  },
  {
    "name": "Koltur Heliport",
    "code": "338482",
    "type": "heliport",
    "location": "Koltur",
    "country_id": "302686",
    "country_code": "FO",
    "IATA": null,
    "ICAO": null,
    "Latitude": "61.984601",
    "Longitude": "-6.963484",
    "Altitude": null,
    "EDI": null
  },
  {
    "name": "Skopun Heliport",
    "code": "338483",
    "type": "heliport",
    "location": "Skopun",
    "country_id": "302686",
    "country_code": "FO",
    "IATA": null,
    "ICAO": null,
    "Latitude": "61.904545",
    "Longitude": "-6.884192",
    "Altitude": null,
    "EDI": null
  },
  {
    "name": "Faroe Islands National Hospital Helipad",
    "code": "338484",
    "type": "heliport",
    "location": "Tórshavn",
    "country_id": "302686",
    "country_code": "FO",
    "IATA": null,
    "ICAO": null,
    "Latitude": "62.001588",
    "Longitude": "-6.774736",
    "Altitude": null,
    "EDI": null
  },
  {
    "name": "Trøllanes Heliport",
    "code": "338486",
    "type": "closed",
    "location": "Trøllanes",
    "country_id": "302686",
    "country_code": "FO",
    "IATA": null,
    "ICAO": null,
    "Latitude": "62.362427",
    "Longitude": "-6.788021",
    "Altitude": null,
    "EDI": null
  },
  {
    "name": "Gásadalur Heliport",
    "code": "338487",
    "type": "closed",
    "location": "Gásadalur",
    "country_id": "302686",
    "country_code": "FO",
    "IATA": null,
    "ICAO": null,
    "Latitude": "62.108372",
    "Longitude": "-7.434793",
    "Altitude": null,
    "EDI": null
  },
  {
    "name": "Múli Heliport",
    "code": "338488",
    "type": "closed",
    "location": "Múli",
    "country_id": "302686",
    "country_code": "FO",
    "IATA": null,
    "ICAO": null,
    "Latitude": "62.349895",
    "Longitude": "-6.582285",
    "Altitude": null,
    "EDI": null
  }
]