[
  {
    "name": "London Heathrow Airport",
    "code": "2434",
    "type": "large_airport",
    "location": "London",
    "country_id": "302688",
    "country_code": "GB",
    "IATA": "LHR",
    "ICAO": "EGLL",
    "Latitude": "51.4706",
    "Longitude": "-0.461941",
    "Altitude": "83",
    "EDI": null
  },
  {
    "name": "London Gatwick Airport",
    "code": "2429",
    "type": "large_airport",
    "location": "London",
    "country_id": "302688",
    "country_code": "GB",
    "IATA": "LGW",
    "ICAO": "EGKK",
    "Latitude": "51.148771",
    "Longitude": "-0.192089",
    "Altitude": "202",
    "EDI": null
  },
  {
    "name": "Manchester Airport",
    "code": "2398",
    "type": "large_airport",
    "location": "Manchester, Greater Manchester",
    "country_id": "302688",
    "country_code": "GB",
    "IATA": "MAN",
    "ICAO": "EGCC",
    "Latitude": "53.349375",
    "Longitude": "-2.279521",
    "Altitude": "257",
    "EDI": null
  },
  {
    "name": "London Stansted Airport",
    "code": "2476",
    "type": "large_airport",
    "location": "London",
    "country_id": "302688",
    "country_code": "GB",
    "IATA": "STN",
    "ICAO": "EGSS",
    "Latitude": "51.884998",
    "Longitude": "0.235",
    "Altitude": "348",
    "EDI": null
  },
  {
    "name": "Edinburgh Airport",
    "code": "2462",
    "type": "large_airport",
    "location": "Edinburgh",
    "country_id": "302688",
    "country_code": "GB",
    "IATA": "EDI",
    "ICAO": "EGPH",
    "Latitude": "55.950145",
    "Longitude": "-3.372288",
    "Altitude": "135",
    "EDI": null
  },
  {
    "name": "Glasgow International Airport",
    "code": "2461",
    "type": "large_airport",
    "location": "Paisley, Renfrewshire",
    "country_id": "302688",
    "country_code": "GB",
    "IATA": "GLA",
    "ICAO": "EGPF",
    "Latitude": "55.871899",
    "Longitude": "-4.43306",
    "Altitude": "26",
    "EDI": null
  },
  {
    "name": "London Luton Airport",
    "code": "2419",
    "type": "large_airport",
    "location": "Luton, Bedfordshire",
    "country_id": "302688",
    "country_code": "GB",
    "IATA": "LTN",
    "ICAO": "EGGW",
    "Latitude": "51.874699",
    "Longitude": "-0.368333",
    "Altitude": "526",
    "EDI": null
  },
  {
    "name": "Birmingham Airport",
    "code": "2389",
    "type": "large_airport",
    "location": "Birmingham, West Midlands",
    "country_id": "302688",
    "country_code": "GB",
    "IATA": "BHX",
    "ICAO": "EGBB",
    "Latitude": "52.453899",
    "Longitude": "-1.74803",
    "Altitude": "327",
    "EDI": null
  },
  {
    "name": "Belfast International Airport",
    "code": "2385",
    "type": "large_airport",
    "location": "Belfast",
    "country_id": "302688",
    "country_code": "GB",
    "IATA": "BFS",
    "ICAO": "EGAA",
    "Latitude": "54.6575012207",
    "Longitude": "-6.2158298492399995",
    "Altitude": "268",
    "EDI": null
  },
  {
    "name": "Plymouth City Airport",
    "code": "2420",
    "type": "closed",
    "location": "Plymouth, Devon",
    "country_id": "302688",
    "country_code": "GB",
    "IATA": null,
    "ICAO": null,
    "Latitude": "50.424282",
    "Longitude": "-4.109439",
    "Altitude": "476",
    "EDI": null
  },
  {
    "name": "Benbecula Airport",
    "code": "2465",
    "type": "medium_airport",
    "location": "Balivanich",
    "country_id": "302688",
    "country_code": "GB",
    "IATA": "BEB",
    "ICAO": "EGPL",
    "Latitude": "57.48109817504883",
    "Longitude": "-7.3627800941467285",
    "Altitude": "19",
    "EDI": null
  },
  {
    "name": "Glasgow Prestwick Airport",
    "code": "2464",
    "type": "medium_airport",
    "location": "Prestwick, South Ayrshire",
    "country_id": "302688",
    "country_code": "GB",
    "IATA": "PIK",
    "ICAO": "EGPK",
    "Latitude": "55.502003",
    "Longitude": "-4.587019",
    "Altitude": "65",
    "EDI": null
  },
  {
    "name": "Islay Airport",
    "code": "2463",
    "type": "medium_airport",
    "location": "Isle of Islay, Argyll and Bute",
    "country_id": "302688",
    "country_code": "GB",
    "IATA": "ILY",
    "ICAO": "EGPI",
    "Latitude": "55.682708",
    "Longitude": "-6.257525",
    "Altitude": "56",
    "EDI": null
  },
  {
    "name": "Inverness Airport",
    "code": "2460",
    "type": "medium_airport",
    "location": "Inverness",
    "country_id": "302688",
    "country_code": "GB",
    "IATA": "INV",
    "ICAO": "EGPE",
    "Latitude": "57.54249954223633",
    "Longitude": "-4.047500133514404",
    "Altitude": "31",
    "EDI": null
  },
  {
    "name": "Aberdeen Dyce Airport",
    "code": "2459",
    "type": "medium_airport",
    "location": "Aberdeen",
    "country_id": "302688",
    "country_code": "GB",
    "IATA": "ABZ",
    "ICAO": "EGPD",
    "Latitude": "57.2019",
    "Longitude": "-2.19778",
    "Altitude": "215",
    "EDI": null
  },
  {
    "name": "Wick Airport",
    "code": "2458",
    "type": "medium_airport",
    "location": "Wick",
    "country_id": "302688",
    "country_code": "GB",
    "IATA": "WIC",
    "ICAO": "EGPC",
    "Latitude": "58.458900451660156",
    "Longitude": "-3.09306001663208",
    "Altitude": "126",
    "EDI": null
  },
  {
    "name": "Sumburgh Airport",
    "code": "2457",
    "type": "medium_airport",
    "location": "Lerwick",
    "country_id": "302688",
    "country_code": "GB",
    "IATA": "LSI",
    "ICAO": "EGPB",
    "Latitude": "59.87889862060547",
    "Longitude": "-1.2955600023269653",
    "Altitude": "20",
    "EDI": null
  },
  {
    "name": "Kirkwall Airport",
    "code": "2456",
    "type": "medium_airport",
    "location": "Orkney Islands",
    "country_id": "302688",
    "country_code": "GB",
    "IATA": "KOI",
    "ICAO": "EGPA",
    "Latitude": "58.957801818847656",
    "Longitude": "-2.9049999713897705",
    "Altitude": "50",
    "EDI": null
  },
  {
    "name": "Campbeltown Airport",
    "code": "2411",
    "type": "medium_airport",
    "location": "Campbeltown",
    "country_id": "302688",
    "country_code": "GB",
    "IATA": "CAL",
    "ICAO": "EGEC",
    "Latitude": "55.437198638916016",
    "Longitude": "-5.686389923095703",
    "Altitude": "42",
    "EDI": null
  },
  {
    "name": "City of Derry Airport",
    "code": "2388",
    "type": "medium_airport",
    "location": "Derry",
    "country_id": "302688",
    "country_code": "GB",
    "IATA": "LDY",
    "ICAO": "EGAE",
    "Latitude": "55.04280090332031",
    "Longitude": "-7.161109924316406",
    "Altitude": "22",
    "EDI": null
  },
  {
    "name": "George Best Belfast City Airport",
    "code": "2387",
    "type": "medium_airport",
    "location": "Belfast",
    "country_id": "302688",
    "country_code": "GB",
    "IATA": "BHD",
    "ICAO": "EGAC",
    "Latitude": "54.618099",
    "Longitude": "-5.8725",
    "Altitude": "15",
    "EDI": null
  },
  {
    "name": "Dundee Airport",
    "code": "2467",
    "type": "medium_airport",
    "location": "Dundee",
    "country_id": "302688",
    "country_code": "GB",
    "IATA": "DND",
    "ICAO": "EGPN",
    "Latitude": "56.45249938964844",
    "Longitude": "-3.025830030441284",
    "Altitude": "17",
    "EDI": null
  },
  {
    "name": "Stornoway Airport",
    "code": "2468",
    "type": "medium_airport",
    "location": "Stornoway, Western Isles",
    "country_id": "302688",
    "country_code": "GB",
    "IATA": "SYY",
    "ICAO": "EGPO",
    "Latitude": "58.215599",
    "Longitude": "-6.33111",
    "Altitude": "26",
    "EDI": null
  },
  {
    "name": "RAF Brize Norton",
    "code": "2493",
    "type": "medium_airport",
    "location": "Carterton, Oxfordshire",
    "country_id": "302688",
    "country_code": "GB",
    "IATA": "BZZ",
    "ICAO": "EGVN",
    "Latitude": "51.75",
    "Longitude": "-1.58362",
    "Altitude": "288",
    "EDI": null
  },
  {
    "name": "RAF Fairford",
    "code": "2492",
    "type": "medium_airport",
    "location": "Fairford, Gloucestershire",
    "country_id": "302688",
    "country_code": "GB",
    "IATA": "FFD",
    "ICAO": "EGVA",
    "Latitude": "51.683568",
    "Longitude": "-1.789172",
    "Altitude": "286",
    "EDI": null
  },
  {
    "name": "Tiree Airport",
    "code": "2469",
    "type": "medium_airport",
    "location": "Balemartine",
    "country_id": "302688",
    "country_code": "GB",
    "IATA": "TRE",
    "ICAO": "EGPU",
    "Latitude": "56.49919891357422",
    "Longitude": "-6.869170188903809",
    "Altitude": "38",
    "EDI": null
  },
  {
    "name": "RAF Mildenhall",
    "code": "2488",
    "type": "medium_airport",
    "location": "Bury Saint Edmunds, Suffolk",
    "country_id": "302688",
    "country_code": "GB",
    "IATA": "MHZ",
    "ICAO": "EGUN",
    "Latitude": "52.3619",
    "Longitude": "0.486406",
    "Altitude": "33",
    "EDI": null
  },
  {
    "name": "RAF Lakenheath",
    "code": "2487",
    "type": "medium_airport",
    "location": "Brandon, Suffolk",
    "country_id": "302688",
    "country_code": "GB",
    "IATA": "LKZ",
    "ICAO": "EGUL",
    "Latitude": "52.40954",
    "Longitude": "0.561161",
    "Altitude": "32",
    "EDI": null
  },
  {
    "name": "Bristol Filton Airport",
    "code": "2482",
    "type": "closed",
    "location": "Bristol, Somerset",
    "country_id": "302688",
    "country_code": "GB",
    "IATA": null,
    "ICAO": null,
    "Latitude": "51.519402",
    "Longitude": "-2.59083",
    "Altitude": "226",
    "EDI": null
  },
  {
    "name": "Exeter International Airport",
    "code": "2481",
    "type": "medium_airport",
    "location": "Exeter, Devon",
    "country_id": "302688",
    "country_code": "GB",
    "IATA": "EXT",
    "ICAO": "EGTE",
    "Latitude": "50.734261",
    "Longitude": "-3.413984",
    "Altitude": "102",
    "EDI": null
  },
  {
    "name": "Norwich Airport",
    "code": "2475",
    "type": "medium_airport",
    "location": "Norwich, Norfolk",
    "country_id": "302688",
    "country_code": "GB",
    "IATA": "NWI",
    "ICAO": "EGSH",
    "Latitude": "52.6758",
    "Longitude": "1.28278",
    "Altitude": "117",
    "EDI": null
  },
  {
    "name": "East Midlands Airport",
    "code": "2450",
    "type": "medium_airport",
    "location": "Nottingham",
    "country_id": "302688",
    "country_code": "GB",
    "IATA": "EMA",
    "ICAO": "EGNX",
    "Latitude": "52.8311",
    "Longitude": "-1.32806",
    "Altitude": "306",
    "EDI": null
  },
  {
    "name": "Teesside International Airport",
    "code": "2449",
    "type": "medium_airport",
    "location": "Darlington, Durham",
    "country_id": "302688",
    "country_code": "GB",
    "IATA": "MME",
    "ICAO": "EGNV",
    "Latitude": "54.509201",
    "Longitude": "-1.42941",
    "Altitude": "120",
    "EDI": null
  },
  {
    "name": "Newcastle International Airport",
    "code": "2448",
    "type": "medium_airport",
    "location": "Newcastle upon Tyne, Tyne and Wear",
    "country_id": "302688",
    "country_code": "GB",
    "IATA": "NCL",
    "ICAO": "EGNT",
    "Latitude": "55.037958",
    "Longitude": "-1.689577",
    "Altitude": "266",
    "EDI": null
  },
  {
    "name": "Leeds Bradford Airport",
    "code": "2444",
    "type": "medium_airport",
    "location": "Leeds, West Yorkshire",
    "country_id": "302688",
    "country_code": "GB",
    "IATA": "LBA",
    "ICAO": "EGNM",
    "Latitude": "53.865898",
    "Longitude": "-1.66057",
    "Altitude": "681",
    "EDI": null
  },
  {
    "name": "Humberside Airport",
    "code": "2442",
    "type": "medium_airport",
    "location": "Grimsby, Lincolnshire",
    "country_id": "302688",
    "country_code": "GB",
    "IATA": "HUY",
    "ICAO": "EGNJ",
    "Latitude": "53.576152",
    "Longitude": "-0.34954",
    "Altitude": "121",
    "EDI": null
  },
  {
    "name": "Blackpool International Airport",
    "code": "2441",
    "type": "medium_airport",
    "location": "Blackpool",
    "country_id": "302688",
    "country_code": "GB",
    "IATA": "BLK",
    "ICAO": "EGNH",
    "Latitude": "53.77170181274414",
    "Longitude": "-3.0286099910736084",
    "Altitude": "34",
    "EDI": null
  },
  {
    "name": "Coventry Airport",
    "code": "2390",
    "type": "medium_airport",
    "location": "Coventry, West Midlands",
    "country_id": "302688",
    "country_code": "GB",
    "IATA": "CVT",
    "ICAO": "EGBE",
    "Latitude": "52.369701",
    "Longitude": "-1.47972",
    "Altitude": "267",
    "EDI": null
  },
  {
    "name": "Cornwall Airport Newquay",
    "code": "2404",
    "type": "medium_airport",
    "location": "Newquay",
    "country_id": "302688",
    "country_code": "GB",
    "IATA": "NQY",
    "ICAO": "EGHQ",
    "Latitude": "50.440601",
    "Longitude": "-4.99541",
    "Altitude": "390",
    "EDI": null
  },
  {
    "name": "Southampton Airport",
    "code": "2422",
    "type": "medium_airport",
    "location": "Southampton",
    "country_id": "302688",
    "country_code": "GB",
    "IATA": "SOU",
    "ICAO": "EGHI",
    "Latitude": "50.950298",
    "Longitude": "-1.3568",
    "Altitude": "44",
    "EDI": null
  },
  {
    "name": "Bournemouth Airport",
    "code": "2421",
    "type": "medium_airport",
    "location": "Christchurch, Dorset",
    "country_id": "302688",
    "country_code": "GB",
    "IATA": "BOH",
    "ICAO": "EGHH",
    "Latitude": "50.780483",
    "Longitude": "-1.839576",
    "Altitude": "38",
    "EDI": null
  },
  {
    "name": "Liverpool John Lennon Airport",
    "code": "2418",
    "type": "medium_airport",
    "location": "Liverpool",
    "country_id": "302688",
    "country_code": "GB",
    "IATA": "LPL",
    "ICAO": "EGGP",
    "Latitude": "53.333599",
    "Longitude": "-2.84972",
    "Altitude": "80",
    "EDI": null
  },
  {
    "name": "Robin Hood Doncaster Sheffield Airport",
    "code": "2401",
    "type": "closed",
    "location": "Doncaster, South Yorkshire",
    "country_id": "302688",
    "country_code": "GB",
    "IATA": null,
    "ICAO": null,
    "Latitude": "53.475287",
    "Longitude": "-1.004267",
    "Altitude": "55",
    "EDI": null
  },
  {
    "name": "Cardiff International Airport",
    "code": "2415",
    "type": "medium_airport",
    "location": "Rhoose, Vale of Glamorgan",
    "country_id": "302688",
    "country_code": "GB",
    "IATA": "CWL",
    "ICAO": "EGFF",
    "Latitude": "51.396702",
    "Longitude": "-3.34333",
    "Altitude": "220",
    "EDI": null
  },
  {
    "name": "Bristol Airport",
    "code": "2417",
    "type": "medium_airport",
    "location": "Bristol",
    "country_id": "302688",
    "country_code": "GB",
    "IATA": "BRS",
    "ICAO": "EGGD",
    "Latitude": "51.382702",
    "Longitude": "-2.71909",
    "Altitude": "622",
    "EDI": null
  },
  {
    "name": "Hawarden Airport",
    "code": "2446",
    "type": "medium_airport",
    "location": "Broughton",
    "country_id": "302688",
    "country_code": "GB",
    "IATA": "CEG",
    "ICAO": "EGNR",
    "Latitude": "53.178101",
    "Longitude": "-2.97778",
    "Altitude": "45",
    "EDI": null
  },
  {
    "name": "London Southend Airport",
    "code": "2435",
    "type": "medium_airport",
    "location": "Southend-on-Sea, Essex",
    "country_id": "302688",
    "country_code": "GB",
    "IATA": "SEN",
    "ICAO": "EGMC",
    "Latitude": "51.570562",
    "Longitude": "0.693627",
    "Altitude": "49",
    "EDI": null
  },
  {
    "name": "Nottingham Airport",
    "code": "2393",
    "type": "medium_airport",
    "location": "Nottingham",
    "country_id": "302688",
    "country_code": "GB",
    "IATA": "NQT",
    "ICAO": "EGBN",
    "Latitude": "52.919998",
    "Longitude": "-1.07917",
    "Altitude": "138",
    "EDI": null
  },
  {
    "name": "Lydd London Ashford Airport",
    "code": "2436",
    "type": "medium_airport",
    "location": "Romney Marsh, Kent",
    "country_id": "302688",
    "country_code": "GB",
    "IATA": "LYX",
    "ICAO": "EGMD",
    "Latitude": "50.956246",
    "Longitude": "0.939074",
    "Altitude": "13",
    "EDI": null
  },
  {
    "name": "Anglesey Airport",
    "code": "2454",
    "type": "medium_airport",
    "location": "Angelsey",
    "country_id": "302688",
    "country_code": "GB",
    "IATA": "VLY",
    "ICAO": "EGOV",
    "Latitude": "53.2481002808",
    "Longitude": "-4.53533983231",
    "Altitude": "37",
    "EDI": null
  }
]