[
  {
    "name": "Dublin Airport",
    "code": "2533",
    "type": "large_airport",
    "location": "Dublin",
    "country_id": "302694",
    "country_code": "IE",
    "IATA": "DUB",
    "ICAO": "EIDW",
    "Latitude": "53.428713",
    "Longitude": "-6.262121",
    "Altitude": "242",
    "EDI": null
  },
  {
    "name": "Shannon Airport",
    "code": "2537",
    "type": "large_airport",
    "location": "Shannon",
    "country_id": "302694",
    "country_code": "IE",
    "IATA": "SNN",
    "ICAO": "EINN",
    "Latitude": "52.702",
    "Longitude": "-8.92482",
    "Altitude": "46",
    "EDI": null
  },
  {
    "name": "Cork Airport",
    "code": "2530",
    "type": "medium_airport",
    "location": "Cork",
    "country_id": "302694",
    "country_code": "IE",
    "IATA": "ORK",
    "ICAO": "EICK",
    "Latitude": "51.841301",
    "Longitude": "-8.49111",
    "Altitude": "502",
    "EDI": null
  },
  {
    "name": "Donegal Airport",
    "code": "2532",
    "type": "medium_airport",
    "location": "Donegal",
    "country_id": "302694",
    "country_code": "IE",
    "IATA": "CFN",
    "ICAO": "EIDL",
    "Latitude": "55.0442008972168",
    "Longitude": "-8.340999603271484",
    "Altitude": "30",
    "EDI": null
  },
  {
    "name": "Galway Airport",
    "code": "2531",
    "type": "medium_airport",
    "location": "Galway",
    "country_id": "302694",
    "country_code": "IE",
    "IATA": "GWY",
    "ICAO": "EICM",
    "Latitude": "53.300201",
    "Longitude": "-8.94159",
    "Altitude": "81",
    "EDI": null
  },
  {
    "name": "Kerry Airport",
    "code": "2535",
    "type": "medium_airport",
    "location": "Killarney",
    "country_id": "302694",
    "country_code": "IE",
    "IATA": "KIR",
    "ICAO": "EIKY",
    "Latitude": "52.180901",
    "Longitude": "-9.52378",
    "Altitude": "112",
    "EDI": null
  },
  {
    "name": "Ireland West Knock Airport",
    "code": "2534",
    "type": "medium_airport",
    "location": "Charlestown",
    "country_id": "302694",
    "country_code": "IE",
    "IATA": "NOC",
    "ICAO": "EIKN",
    "Latitude": "53.910301",
    "Longitude": "-8.81849",
    "Altitude": "665",
    "EDI": null
  },
  {
    "name": "Sligo Airport",
    "code": "2538",
    "type": "medium_airport",
    "location": "Sligo",
    "country_id": "302694",
    "country_code": "IE",
    "IATA": "SXL",
    "ICAO": "EISG",
    "Latitude": "54.280200958252",
    "Longitude": "-8.5992097854614",
    "Altitude": "11",
    "EDI": null
  },
  {
    "name": "Waterford Airport",
    "code": "2539",
    "type": "medium_airport",
    "location": "Waterford",
    "country_id": "302694",
    "country_code": "IE",
    "IATA": "WAT",
    "ICAO": "EIWF",
    "Latitude": "52.187199",
    "Longitude": "-7.08696",
    "Altitude": "119",
    "EDI": null
  },
  {
    "name": "Casement Air Base",
    "code": "2536",
    "type": "medium_airport",
    "location": "Baldonnel",
    "country_id": "302694",
    "country_code": "IE",
    "IATA": null,
    "ICAO": null,
    "Latitude": "53.301700592",
    "Longitude": "-6.451330184940001",
    "Altitude": "319",
    "EDI": null
  },
  {
    "name": "Weston Airport",
    "code": "27310",
    "type": "medium_airport",
    "location": "Leixlip",
    "country_id": "302694",
    "country_code": "IE",
    "IATA": null,
    "ICAO": null,
    "Latitude": "53.351622",
    "Longitude": "-6.490357",
    "Altitude": "150",
    "EDI": null
  },
  {
    "name": "Inishmaan Aerodrome",
    "code": "29226",
    "type": "small_airport",
    "location": "Inis Meáin",
    "country_id": "302694",
    "country_code": "IE",
    "IATA": "IIA",
    "ICAO": "EIMN",
    "Latitude": "53.092999",
    "Longitude": "-9.56806",
    "Altitude": "15",
    "EDI": null
  },
  {
    "name": "Inisheer Aerodrome",
    "code": "29222",
    "type": "small_airport",
    "location": "Inis Oírr",
    "country_id": "302694",
    "country_code": "IE",
    "IATA": "INQ",
    "ICAO": "EIIR",
    "Latitude": "53.064701",
    "Longitude": "-9.5109",
    "Altitude": "40",
    "EDI": null
  },
  {
    "name": "Inishmore Aerodrome",
    "code": "29221",
    "type": "small_airport",
    "location": "Inis Mór",
    "country_id": "302694",
    "country_code": "IE",
    "IATA": "IOR",
    "ICAO": "EIIM",
    "Latitude": "53.1067008972168",
    "Longitude": "-9.653610229492188",
    "Altitude": "24",
    "EDI": null
  },
  {
    "name": "Connemara Regional Airport",
    "code": "27309",
    "type": "small_airport",
    "location": "Inverin",
    "country_id": "302694",
    "country_code": "IE",
    "IATA": "NNR",
    "ICAO": "EICA",
    "Latitude": "53.23030090332031",
    "Longitude": "-9.467780113220215",
    "Altitude": "70",
    "EDI": null
  },
  {
    "name": "Birr Aerodrome",
    "code": "29215",
    "type": "small_airport",
    "location": "Birr",
    "country_id": "302694",
    "country_code": "IE",
    "IATA": null,
    "ICAO": null,
    "Latitude": "53.07059860229492",
    "Longitude": "-7.898330211639404",
    "Altitude": "250",
    "EDI": null
  },
  {
    "name": "Midland Heliport",
    "code": "43996",
    "type": "heliport",
    "location": "Abbeyleix",
    "country_id": "302694",
    "country_code": "IE",
    "IATA": null,
    "ICAO": null,
    "Latitude": "52.892223",
    "Longitude": "-7.262778",
    "Altitude": "614",
    "EDI": null
  },
  {
    "name": "Eyne Airfield",
    "code": "317046",
    "type": "small_airport",
    "location": "Eyne",
    "country_id": "302694",
    "country_code": "IE",
    "IATA": null,
    "ICAO": null,
    "Latitude": "53.082764",
    "Longitude": "-7.277601",
    "Altitude": "265",
    "EDI": null
  },
  {
    "name": "Limetree Airfield",
    "code": "320593",
    "type": "small_airport",
    "location": "Limetree",
    "country_id": "302694",
    "country_code": "IE",
    "IATA": null,
    "ICAO": null,
    "Latitude": "53.1155",
    "Longitude": "-7.2443",
    "Altitude": "210",
    "EDI": null
  },
  {
    "name": "Borris-in-Ossory Airstrip",
    "code": "321350",
    "type": "small_airport",
    "location": "Borris-in-Ossory",
    "country_id": "302694",
    "country_code": "IE",
    "IATA": null,
    "ICAO": null,
    "Latitude": "52.92613",
    "Longitude": "-7.65352",
    "Altitude": null,
    "EDI": null
  },
  {
    "name": "Stradbally Airstrip",
    "code": "321482",
    "type": "small_airport",
    "location": "Stradbally",
    "country_id": "302694",
    "country_code": "IE",
    "IATA": null,
    "ICAO": null,
    "Latitude": "53.04556",
    "Longitude": "-7.163937",
    "Altitude": null,
    "EDI": null
  },
  {
    "name": "Abbeyleix Airfield",
    "code": "533242",
    "type": "small_airport",
    "location": "Abbeyleix",
    "country_id": "302694",
    "country_code": "IE",
    "IATA": null,
    "ICAO": null,
    "Latitude": "52.894444",
    "Longitude": "-7.369167",
    "Altitude": "380",
    "EDI": null
  },
  {
    "name": "Trim Aerodrome",
    "code": "29231",
    "type": "small_airport",
    "location": "Trim",
    "country_id": "302694",
    "country_code": "IE",
    "IATA": null,
    "ICAO": null,
    "Latitude": "53.5746994019",
    "Longitude": "-6.7386097908",
    "Altitude": "200",
    "EDI": null
  },
  {
    "name": "Gormanstown Aerodrome",
    "code": "29902",
    "type": "closed",
    "location": "Gormanstown",
    "country_id": "302694",
    "country_code": "IE",
    "IATA": null,
    "ICAO": null,
    "Latitude": "53.6348",
    "Longitude": "-6.2277",
    "Altitude": "69",
    "EDI": null
  },
  {
    "name": "Athboy Airfield",
    "code": "43997",
    "type": "small_airport",
    "location": "Athboy",
    "country_id": "302694",
    "country_code": "IE",
    "IATA": null,
    "ICAO": null,
    "Latitude": "53.637779",
    "Longitude": "-6.878611",
    "Altitude": "230",
    "EDI": null
  },
  {
    "name": "Navan Airfield",
    "code": "315675",
    "type": "small_airport",
    "location": "Navan",
    "country_id": "302694",
    "country_code": "IE",
    "IATA": null,
    "ICAO": null,
    "Latitude": "53.695489",
    "Longitude": "-6.654094",
    "Altitude": "250",
    "EDI": null
  },
  {
    "name": "Dolly's Grove Airfield",
    "code": "316745",
    "type": "small_airport",
    "location": "Staffordstown",
    "country_id": "302694",
    "country_code": "IE",
    "IATA": null,
    "ICAO": null,
    "Latitude": "53.422468",
    "Longitude": "-6.546232",
    "Altitude": null,
    "EDI": null
  },
  {
    "name": "Dowth Hall Airfield",
    "code": "320225",
    "type": "closed",
    "location": "Dowth",
    "country_id": "302694",
    "country_code": "IE",
    "IATA": null,
    "ICAO": null,
    "Latitude": "53.709054",
    "Longitude": "-6.438029",
    "Altitude": null,
    "EDI": null
  },
  {
    "name": "Taggarts Airstrip",
    "code": "321540",
    "type": "small_airport",
    "location": "Clonard",
    "country_id": "302694",
    "country_code": "IE",
    "IATA": null,
    "ICAO": null,
    "Latitude": "53.44808",
    "Longitude": "-7.04839",
    "Altitude": "243",
    "EDI": null
  },
  {
    "name": "Laytown Airstrip",
    "code": "321723",
    "type": "small_airport",
    "location": "Sevitsland",
    "country_id": "302694",
    "country_code": "IE",
    "IATA": null,
    "ICAO": null,
    "Latitude": "53.690727",
    "Longitude": "-6.272178",
    "Altitude": null,
    "EDI": null
  },
  {
    "name": "Carstown Ultralight Airstrip",
    "code": "333195",
    "type": "small_airport",
    "location": "Ballymakenny",
    "country_id": "302694",
    "country_code": "IE",
    "IATA": null,
    "ICAO": null,
    "Latitude": "53.7668",
    "Longitude": "-6.3257",
    "Altitude": null,
    "EDI": null
  },
  {
    "name": "Dunslaughlin Airstrip",
    "code": "333220",
    "type": "small_airport",
    "location": "Moorestown",
    "country_id": "302694",
    "country_code": "IE",
    "IATA": null,
    "ICAO": null,
    "Latitude": "53.5192",
    "Longitude": "-6.6001",
    "Altitude": null,
    "EDI": null
  },
  {
    "name": "Moyglare Airfield",
    "code": "333221",
    "type": "small_airport",
    "location": "Moyglare",
    "country_id": "302694",
    "country_code": "IE",
    "IATA": null,
    "ICAO": null,
    "Latitude": "53.4044",
    "Longitude": "-6.6362",
    "Altitude": null,
    "EDI": null
  },
  {
    "name": "Adamstown Airfield",
    "code": "525749",
    "type": "small_airport",
    "location": "Trim",
    "country_id": "302694",
    "country_code": "IE",
    "IATA": null,
    "ICAO": null,
    "Latitude": "53.536548",
    "Longitude": "-6.734977",
    "Altitude": "200",
    "EDI": null
  },
  {
    "name": "Drumgurra Airstrip",
    "code": "514608",
    "type": "small_airport",
    "location": "Drumgurra",
    "country_id": "302694",
    "country_code": "IE",
    "IATA": null,
    "ICAO": null,
    "Latitude": "53.992919",
    "Longitude": "-6.799064",
    "Altitude": null,
    "EDI": null
  },
  {
    "name": "Belmullet Aerodrome",
    "code": "29216",
    "type": "small_airport",
    "location": "Belmullet",
    "country_id": "302694",
    "country_code": "IE",
    "IATA": "BLY",
    "ICAO": "EIBT",
    "Latitude": "54.2228012085",
    "Longitude": "-10.0307998657",
    "Altitude": "150",
    "EDI": null
  },
  {
    "name": "Castlebar Airport",
    "code": "29217",
    "type": "closed",
    "location": "Castlebar",
    "country_id": "302694",
    "country_code": "IE",
    "IATA": null,
    "ICAO": null,
    "Latitude": "53.8484",
    "Longitude": "-9.28037",
    "Altitude": null,
    "EDI": null
  },
  {
    "name": "Lough Conn Airstrip",
    "code": "319345",
    "type": "small_airport",
    "location": "Cloghans",
    "country_id": "302694",
    "country_code": "IE",
    "IATA": null,
    "ICAO": null,
    "Latitude": "54.044059",
    "Longitude": "-9.216109",
    "Altitude": null,
    "EDI": null
  },
  {
    "name": "Newcastle Aerodrome",
    "code": "29228",
    "type": "small_airport",
    "location": "Newcastle",
    "country_id": "302694",
    "country_code": "IE",
    "IATA": null,
    "ICAO": null,
    "Latitude": "53.071098",
    "Longitude": "-6.04528",
    "Altitude": "1",
    "EDI": null
  },
  {
    "name": "Ballyboe Airstrip",
    "code": "321344",
    "type": "small_airport",
    "location": "Gammonsfield",
    "country_id": "302694",
    "country_code": "IE",
    "IATA": null,
    "ICAO": null,
    "Latitude": "52.383923",
    "Longitude": "-7.618068",
    "Altitude": null,
    "EDI": null
  },
  {
    "name": "Fethard Airstrip",
    "code": "322003",
    "type": "small_airport",
    "location": "Fethard",
    "country_id": "302694",
    "country_code": "IE",
    "IATA": null,
    "ICAO": null,
    "Latitude": "52.471738",
    "Longitude": "-7.734409",
    "Altitude": null,
    "EDI": null
  },
  {
    "name": "Pallas West Airstrip",
    "code": "333223",
    "type": "small_airport",
    "location": "Toomyvara",
    "country_id": "302694",
    "country_code": "IE",
    "IATA": null,
    "ICAO": null,
    "Latitude": "52.8601",
    "Longitude": "-8.0498",
    "Altitude": null,
    "EDI": null
  },
  {
    "name": "Lickfinn Airstrip",
    "code": "333395",
    "type": "small_airport",
    "location": "Killenaule",
    "country_id": "302694",
    "country_code": "IE",
    "IATA": null,
    "ICAO": null,
    "Latitude": "52.591353",
    "Longitude": "-7.643436",
    "Altitude": null,
    "EDI": null
  },
  {
    "name": "Dorans Airstrip",
    "code": "321611",
    "type": "small_airport",
    "location": "Shinglis",
    "country_id": "302694",
    "country_code": "IE",
    "IATA": null,
    "ICAO": null,
    "Latitude": "53.51968",
    "Longitude": "-7.67858",
    "Altitude": null,
    "EDI": null
  },
  {
    "name": "Mullingar-Milltownpass Airfield",
    "code": "322164",
    "type": "small_airport",
    "location": "Milltownpass",
    "country_id": "302694",
    "country_code": "IE",
    "IATA": null,
    "ICAO": null,
    "Latitude": "53.452082",
    "Longitude": "-7.237543",
    "Altitude": "281",
    "EDI": null
  },
  {
    "name": "Craddenstown Airfield",
    "code": "594591",
    "type": "small_airport",
    "location": "Craddanstown",
    "country_id": "302694",
    "country_code": "IE",
    "IATA": null,
    "ICAO": null,
    "Latitude": "53.542749",
    "Longitude": "-7.061153",
    "Altitude": "256",
    "EDI": null
  },
  {
    "name": "Ballinvally Farm Airstrip",
    "code": "320772",
    "type": "closed",
    "location": "Court",
    "country_id": "302694",
    "country_code": "IE",
    "IATA": null,
    "ICAO": null,
    "Latitude": "52.570456",
    "Longitude": "-6.318448",
    "Altitude": "200",
    "EDI": null
  },
  {
    "name": "Warrens Airstrip",
    "code": "321685",
    "type": "small_airport",
    "location": "Gorey",
    "country_id": "302694",
    "country_code": "IE",
    "IATA": null,
    "ICAO": null,
    "Latitude": "52.640212",
    "Longitude": "-6.298816",
    "Altitude": null,
    "EDI": null
  },
  {
    "name": "Ballyvalloo Airstrip",
    "code": "321483",
    "type": "small_airport",
    "location": "Enniscorthy",
    "country_id": "302694",
    "country_code": "IE",
    "IATA": null,
    "ICAO": null,
    "Latitude": "52.414439",
    "Longitude": "-6.363058",
    "Altitude": null,
    "EDI": null
  },
  {
    "name": "Morriscastle Airstrip",
    "code": "321226",
    "type": "closed",
    "location": "Morriscastle",
    "country_id": "302694",
    "country_code": "IE",
    "IATA": null,
    "ICAO": null,
    "Latitude": "52.516621",
    "Longitude": "-6.26371",
    "Altitude": null,
    "EDI": null
  }
]