[
  {
    "name": "Chhatrapati Shivaji International Airport",
    "code": "26434",
    "type": "large_airport",
    "location": "Mumbai",
    "country_id": "302634",
    "country_code": "IN",
    "IATA": "BOM",
    "ICAO": "VABB",
    "Latitude": "19.0886993408",
    "Longitude": "72.8678970337",
    "Altitude": "39",
    "EDI": null
  },
  {
    "name": "Indira Gandhi International Airport",
    "code": "26555",
    "type": "large_airport",
    "location": "New Delhi",
    "country_id": "302634",
    "country_code": "IN",
    "IATA": "DEL",
    "ICAO": "VIDP",
    "Latitude": "28.55563",
    "Longitude": "77.09519",
    "Altitude": "777",
    "EDI": null
  },
  {
    "name": "Chennai International Airport",
    "code": "26618",
    "type": "large_airport",
    "location": "Chennai",
    "country_id": "302634",
    "country_code": "IN",
    "IATA": "MAA",
    "ICAO": "VOMM",
    "Latitude": "12.990005",
    "Longitude": "80.169296",
    "Altitude": "52",
    "EDI": null
  },
  {
    "name": "Netaji Subhash Chandra Bose International Airport",
    "code": "26496",
    "type": "large_airport",
    "location": "Kolkata",
    "country_id": "302634",
    "country_code": "IN",
    "IATA": "CCU",
    "ICAO": "VECC",
    "Latitude": "22.654699",
    "Longitude": "88.446701",
    "Altitude": "16",
    "EDI": null
  },
  {
    "name": "Thiruvananthapuram International Airport",
    "code": "26629",
    "type": "large_airport",
    "location": "Thiruvananthapuram",
    "country_id": "302634",
    "country_code": "IN",
    "IATA": "TRV",
    "ICAO": "VOTV",
    "Latitude": "8.48212",
    "Longitude": "76.920097",
    "Altitude": "15",
    "EDI": null
  },
  {
    "name": "Dabolim Airport",
    "code": "26444",
    "type": "large_airport",
    "location": "Vasco da Gama",
    "country_id": "302634",
    "country_code": "IN",
    "IATA": "GOI",
    "ICAO": "VOGO",
    "Latitude": "15.3808",
    "Longitude": "73.831398",
    "Altitude": "150",
    "EDI": null
  },
  {
    "name": "Aurangabad Airport",
    "code": "26433",
    "type": "medium_airport",
    "location": "Aurangabad",
    "country_id": "302634",
    "country_code": "IN",
    "IATA": "IXU",
    "ICAO": "VAAU",
    "Latitude": "19.862699508666992",
    "Longitude": "75.39810180664062",
    "Altitude": "1911",
    "EDI": null
  },
  {
    "name": "Veer Savarkar International Airport / INS Utkrosh",
    "code": "26620",
    "type": "medium_airport",
    "location": "Port Blair",
    "country_id": "302634",
    "country_code": "IN",
    "IATA": "IXZ",
    "ICAO": "VOPB",
    "Latitude": "11.641208",
    "Longitude": "92.729643",
    "Altitude": "13",
    "EDI": null
  },
  {
    "name": "Kolhapur Airport",
    "code": "26451",
    "type": "medium_airport",
    "location": "Kolhapur",
    "country_id": "302634",
    "country_code": "IN",
    "IATA": "KLH",
    "ICAO": "VAKP",
    "Latitude": "16.6647",
    "Longitude": "74.289398",
    "Altitude": "1996",
    "EDI": null
  },
  {
    "name": "Dr. Babasaheb Ambedkar International Airport",
    "code": "26453",
    "type": "medium_airport",
    "location": "Nagpur",
    "country_id": "302634",
    "country_code": "IN",
    "IATA": "NAG",
    "ICAO": "VANP",
    "Latitude": "21.092199",
    "Longitude": "79.047203",
    "Altitude": "1033",
    "EDI": null
  },
  {
    "name": "Pune Airport / Lohagaon Air Force Station",
    "code": "26455",
    "type": "medium_airport",
    "location": "Pune",
    "country_id": "302634",
    "country_code": "IN",
    "IATA": "PNQ",
    "ICAO": "VAPO",
    "Latitude": "18.5821",
    "Longitude": "73.919701",
    "Altitude": "1942",
    "EDI": null
  },
  {
    "name": "Imphal Airport",
    "code": "26504",
    "type": "medium_airport",
    "location": "Imphal",
    "country_id": "302634",
    "country_code": "IN",
    "IATA": "IMF",
    "ICAO": "VEIM",
    "Latitude": "24.7600002289",
    "Longitude": "93.896697998",
    "Altitude": "2540",
    "EDI": null
  },
  {
    "name": "Devi Ahilyabai Holkar Airport",
    "code": "26446",
    "type": "medium_airport",
    "location": "Indore",
    "country_id": "302634",
    "country_code": "IN",
    "IATA": "IDR",
    "ICAO": "VAID",
    "Latitude": "22.7217998505",
    "Longitude": "75.8011016846",
    "Altitude": "1850",
    "EDI": null
  },
  {
    "name": "Dimapur Airport",
    "code": "26513",
    "type": "medium_airport",
    "location": "Dimapur",
    "country_id": "302634",
    "country_code": "IN",
    "IATA": "DMU",
    "ICAO": "VEMR",
    "Latitude": "25.883899688699998",
    "Longitude": "93.77110290530001",
    "Altitude": "487",
    "EDI": null
  },
  {
    "name": "Biju Patnaik Airport",
    "code": "26494",
    "type": "medium_airport",
    "location": "Bhubaneswar",
    "country_id": "302634",
    "country_code": "IN",
    "IATA": "BBI",
    "ICAO": "VEBS",
    "Latitude": "20.244400024399997",
    "Longitude": "85.8178024292",
    "Altitude": "138",
    "EDI": null
  },
  {
    "name": "Sri Guru Ram Dass Jee International Airport",
    "code": "26540",
    "type": "medium_airport",
    "location": "Amritsar",
    "country_id": "302634",
    "country_code": "IN",
    "IATA": "ATQ",
    "ICAO": "VIAR",
    "Latitude": "31.7096",
    "Longitude": "74.797302",
    "Altitude": "756",
    "EDI": null
  },
  {
    "name": "Jaipur International Airport",
    "code": "26563",
    "type": "medium_airport",
    "location": "Jaipur",
    "country_id": "302634",
    "country_code": "IN",
    "IATA": "JAI",
    "ICAO": "VIJP",
    "Latitude": "26.8242",
    "Longitude": "75.812202",
    "Altitude": "1263",
    "EDI": null
  },
  {
    "name": "Agartala - Maharaja Bir Bikram Airport",
    "code": "26489",
    "type": "medium_airport",
    "location": "Agartala",
    "country_id": "302634",
    "country_code": "IN",
    "IATA": "IXA",
    "ICAO": "VEAT",
    "Latitude": "23.886999",
    "Longitude": "91.240402",
    "Altitude": "46",
    "EDI": null
  },
  {
    "name": "Lal Bahadur Shastri Airport",
    "code": "26545",
    "type": "medium_airport",
    "location": "Varanasi",
    "country_id": "302634",
    "country_code": "IN",
    "IATA": "VNS",
    "ICAO": "VEBN",
    "Latitude": "25.452129",
    "Longitude": "82.861805",
    "Altitude": "266",
    "EDI": null
  },
  {
    "name": "Bagdogra Airport",
    "code": "26491",
    "type": "medium_airport",
    "location": "Siliguri",
    "country_id": "302634",
    "country_code": "IN",
    "IATA": "IXB",
    "ICAO": "VEBD",
    "Latitude": "26.68120002746582",
    "Longitude": "88.32859802246094",
    "Altitude": "412",
    "EDI": null
  },
  {
    "name": "Sardar Vallabh Bhai Patel International Airport",
    "code": "26431",
    "type": "medium_airport",
    "location": "Ahmedabad",
    "country_id": "302634",
    "country_code": "IN",
    "IATA": "AMD",
    "ICAO": "VAAH",
    "Latitude": "23.0772",
    "Longitude": "72.634697",
    "Altitude": "189",
    "EDI": null
  },
  {
    "name": "Jammu Airport",
    "code": "26565",
    "type": "medium_airport",
    "location": "Jammu",
    "country_id": "302634",
    "country_code": "IN",
    "IATA": "IXJ",
    "ICAO": "VIJU",
    "Latitude": "32.688849",
    "Longitude": "74.838152",
    "Altitude": "996",
    "EDI": null
  },
  {
    "name": "HAL Airport",
    "code": "26603",
    "type": "medium_airport",
    "location": "Bangalore",
    "country_id": "302634",
    "country_code": "IN",
    "IATA": null,
    "ICAO": null,
    "Latitude": "12.95",
    "Longitude": "77.668198",
    "Altitude": "2912",
    "EDI": null
  },
  {
    "name": "Chandigarh International Airport",
    "code": "26550",
    "type": "medium_airport",
    "location": "Chandigarh",
    "country_id": "302634",
    "country_code": "IN",
    "IATA": "IXC",
    "ICAO": "VICG",
    "Latitude": "30.6735",
    "Longitude": "76.788498",
    "Altitude": "1012",
    "EDI": null
  },
  {
    "name": "Jay Prakash Narayan Airport",
    "code": "26517",
    "type": "medium_airport",
    "location": "Patna",
    "country_id": "302634",
    "country_code": "IN",
    "IATA": "PAT",
    "ICAO": "VEPT",
    "Latitude": "25.591299",
    "Longitude": "85.087997",
    "Altitude": "170",
    "EDI": null
  },
  {
    "name": "Lokpriya Gopinath Bordoloi International Airport",
    "code": "26501",
    "type": "medium_airport",
    "location": "Guwahati",
    "country_id": "302634",
    "country_code": "IN",
    "IATA": "GAU",
    "ICAO": "VEGT",
    "Latitude": "26.10610008239746",
    "Longitude": "91.58589935302734",
    "Altitude": "162",
    "EDI": null
  },
  {
    "name": "Shillong Airport",
    "code": "26492",
    "type": "medium_airport",
    "location": "Shillong",
    "country_id": "302634",
    "country_code": "IN",
    "IATA": "SHL",
    "ICAO": "VEBI",
    "Latitude": "25.70359992980957",
    "Longitude": "91.97869873046875",
    "Altitude": "2910",
    "EDI": null
  },
  {
    "name": "Agatti Airport",
    "code": "26602",
    "type": "medium_airport",
    "location": "Agatti",
    "country_id": "302634",
    "country_code": "IN",
    "IATA": "AGX",
    "ICAO": "VOAT",
    "Latitude": "10.8237",
    "Longitude": "72.176003",
    "Altitude": "14",
    "EDI": null
  },
  {
    "name": "Hisar Airport",
    "code": "26559",
    "type": "medium_airport",
    "location": "Hisar",
    "country_id": "302634",
    "country_code": "IN",
    "IATA": "HSS",
    "ICAO": "VIHR",
    "Latitude": "29.179399",
    "Longitude": "75.755302",
    "Altitude": "700",
    "EDI": null
  },
  {
    "name": "Murod Kond Airport",
    "code": "3341",
    "type": "medium_airport",
    "location": "Latur",
    "country_id": "302634",
    "country_code": "IN",
    "IATA": "LTU",
    "ICAO": "VALT",
    "Latitude": "18.411501",
    "Longitude": "76.464699",
    "Altitude": "2136",
    "EDI": null
  },
  {
    "name": "Gondia Airport",
    "code": "3299",
    "type": "medium_airport",
    "location": "Gondia",
    "country_id": "302634",
    "country_code": "IN",
    "IATA": "GDB",
    "ICAO": null,
    "Latitude": "21.526817",
    "Longitude": "80.290347",
    "Altitude": "987",
    "EDI": null
  },
  {
    "name": "Nashik Airport",
    "code": "3301",
    "type": "medium_airport",
    "location": "Nasik",
    "country_id": "302634",
    "country_code": "IN",
    "IATA": "ISK",
    "ICAO": "VAOZ",
    "Latitude": "20.119101",
    "Longitude": "73.912903",
    "Altitude": "1900",
    "EDI": null
  },
  {
    "name": "Begumpet Airport",
    "code": "26615",
    "type": "medium_airport",
    "location": "Hyderabad",
    "country_id": "302634",
    "country_code": "IN",
    "IATA": "BPM",
    "ICAO": "VOHY",
    "Latitude": "17.4531",
    "Longitude": "78.467598",
    "Altitude": "1742",
    "EDI": null
  },
  {
    "name": "Panagarh Air Force Station",
    "code": "26516",
    "type": "medium_airport",
    "location": null,
    "country_id": "302634",
    "country_code": "IN",
    "IATA": null,
    "ICAO": null,
    "Latitude": "23.474300384499998",
    "Longitude": "87.4274978638",
    "Altitude": "240",
    "EDI": null
  },
  {
    "name": "Hashimara Air Force Station",
    "code": "3312",
    "type": "medium_airport",
    "location": "Jalpaiguri",
    "country_id": "302634",
    "country_code": "IN",
    "IATA": null,
    "ICAO": null,
    "Latitude": "26.698299",
    "Longitude": "89.369102",
    "Altitude": "340",
    "EDI": null
  },
  {
    "name": "Along Airport",
    "code": "26488",
    "type": "medium_airport",
    "location": null,
    "country_id": "302634",
    "country_code": "IN",
    "IATA": "IXV",
    "ICAO": "VEAN",
    "Latitude": "28.17530059814453",
    "Longitude": "94.802001953125",
    "Altitude": "900",
    "EDI": null
  },
  {
    "name": "Daman Airport",
    "code": "26441",
    "type": "medium_airport",
    "location": "Daman",
    "country_id": "302634",
    "country_code": "IN",
    "IATA": "NMB",
    "ICAO": "VADN",
    "Latitude": "20.434401",
    "Longitude": "72.843201",
    "Altitude": "33",
    "EDI": null
  },
  {
    "name": "Car Nicobar Air Force Base",
    "code": "26612",
    "type": "medium_airport",
    "location": "IAF Camp",
    "country_id": "302634",
    "country_code": "IN",
    "IATA": "CBD",
    "ICAO": "VOCX",
    "Latitude": "9.153056",
    "Longitude": "92.819273",
    "Altitude": "5",
    "EDI": null
  },
  {
    "name": "Kullu Manali Airport",
    "code": "26546",
    "type": "medium_airport",
    "location": "Bhuntar",
    "country_id": "302634",
    "country_code": "IN",
    "IATA": "KUU",
    "ICAO": "VIBR",
    "Latitude": "31.876699",
    "Longitude": "77.154404",
    "Altitude": "3573",
    "EDI": null
  },
  {
    "name": "Solapur Airport",
    "code": "26460",
    "type": "medium_airport",
    "location": "Solapur",
    "country_id": "302634",
    "country_code": "IN",
    "IATA": "SSE",
    "ICAO": "VASL",
    "Latitude": "17.6280002594",
    "Longitude": "75.93479919430001",
    "Altitude": "1584",
    "EDI": null
  },
  {
    "name": "Ratnagiri Airport",
    "code": "26457",
    "type": "medium_airport",
    "location": null,
    "country_id": "302634",
    "country_code": "IN",
    "IATA": "RTC",
    "ICAO": "VARG",
    "Latitude": "17.013599",
    "Longitude": "73.327797",
    "Altitude": "305",
    "EDI": null
  },
  {
    "name": "Akola Airport",
    "code": "26432",
    "type": "medium_airport",
    "location": "Akola",
    "country_id": "302634",
    "country_code": "IN",
    "IATA": "AKD",
    "ICAO": "VAAK",
    "Latitude": "20.698931",
    "Longitude": "77.056883",
    "Altitude": "999",
    "EDI": null
  },
  {
    "name": "Tuirial Airfield",
    "code": "26490",
    "type": "small_airport",
    "location": "Aizawl",
    "country_id": "302634",
    "country_code": "IN",
    "IATA": null,
    "ICAO": null,
    "Latitude": "23.746214",
    "Longitude": "92.802846",
    "Altitude": "1093",
    "EDI": null
  },
  {
    "name": "Gandhinagar Airfield",
    "code": "26454",
    "type": "small_airport",
    "location": "Nashik",
    "country_id": "302634",
    "country_code": "IN",
    "IATA": null,
    "ICAO": "VANR",
    "Latitude": "19.963699",
    "Longitude": "73.807602",
    "Altitude": "1959",
    "EDI": null
  },
  {
    "name": "INS Garuda / Willingdon Island Naval Air Station",
    "code": "26608",
    "type": "small_airport",
    "location": "Kochi",
    "country_id": "302634",
    "country_code": "IN",
    "IATA": null,
    "ICAO": null,
    "Latitude": "9.946064",
    "Longitude": "76.271947",
    "Altitude": "8",
    "EDI": null
  },
  {
    "name": "Jalgaon Airport",
    "code": "3303",
    "type": "small_airport",
    "location": "Jalgaon",
    "country_id": "302634",
    "country_code": "IN",
    "IATA": "JLG",
    "ICAO": "VAJL",
    "Latitude": "20.962678",
    "Longitude": "75.627492",
    "Altitude": "818",
    "EDI": null
  },
  {
    "name": "Chanda Airport",
    "code": "3283",
    "type": "small_airport",
    "location": null,
    "country_id": "302634",
    "country_code": "IN",
    "IATA": null,
    "ICAO": null,
    "Latitude": "19.994699478149414",
    "Longitude": "79.22250366210938",
    "Altitude": "625",
    "EDI": null
  },
  {
    "name": "Burnpur Airport",
    "code": "3307",
    "type": "small_airport",
    "location": null,
    "country_id": "302634",
    "country_code": "IN",
    "IATA": null,
    "ICAO": null,
    "Latitude": "23.631500244140625",
    "Longitude": "86.97550201416016",
    "Altitude": "310",
    "EDI": null
  },
  {
    "name": "Barrackpore Air Force Station",
    "code": "3309",
    "type": "small_airport",
    "location": "Barrackpore",
    "country_id": "302634",
    "country_code": "IN",
    "IATA": null,
    "ICAO": null,
    "Latitude": "22.7810001373",
    "Longitude": "88.3591995239",
    "Altitude": "18",
    "EDI": null
  },
  {
    "name": "Karad Airport",
    "code": "3293",
    "type": "small_airport",
    "location": null,
    "country_id": "302634",
    "country_code": "IN",
    "IATA": null,
    "ICAO": null,
    "Latitude": "17.285900115966797",
    "Longitude": "74.15809631347656",
    "Altitude": "1890",
    "EDI": null
  }
]