[
  {
    "name": "Bucholz Army Air Field",
    "code": "5490",
    "type": "medium_airport",
    "location": "Kwajalein",
    "country_id": "302770",
    "country_code": "MH",
    "IATA": "KWA",
    "ICAO": "PKWA",
    "Latitude": "8.720120429992676",
    "Longitude": "167.73199462890625",
    "Altitude": "9",
    "EDI": null
  },
  {
    "name": "Marshall Islands International Airport",
    "code": "5488",
    "type": "medium_airport",
    "location": "Majuro Atoll",
    "country_id": "302770",
    "country_code": "MH",
    "IATA": "MAJ",
    "ICAO": "PKMJ",
    "Latitude": "7.06476",
    "Longitude": "171.272003",
    "Altitude": "6",
    "EDI": null
  },
  {
    "name": "Eniwetok Airport",
    "code": "5487",
    "type": "small_airport",
    "location": "Eniwetok Atoll",
    "country_id": "302770",
    "country_code": "MH",
    "IATA": "ENT",
    "ICAO": "PKMA",
    "Latitude": "11.340700149536133",
    "Longitude": "162.3280029296875",
    "Altitude": "13",
    "EDI": null
  },
  {
    "name": "Kili Airport",
    "code": "4659",
    "type": "small_airport",
    "location": "Kili Island",
    "country_id": "302770",
    "country_code": "MH",
    "IATA": "KIO",
    "ICAO": null,
    "Latitude": "5.64386",
    "Longitude": "169.124586",
    "Altitude": "5",
    "EDI": null
  },
  {
    "name": "Utirik Airport",
    "code": "4650",
    "type": "small_airport",
    "location": "Utirik Island",
    "country_id": "302770",
    "country_code": "MH",
    "IATA": "UTK",
    "ICAO": null,
    "Latitude": "11.222219",
    "Longitude": "169.851429",
    "Altitude": "4",
    "EDI": null
  },
  {
    "name": "Ine Airport",
    "code": "4655",
    "type": "small_airport",
    "location": "Arno Atoll",
    "country_id": "302770",
    "country_code": "MH",
    "IATA": "IMI",
    "ICAO": null,
    "Latitude": "7.005553",
    "Longitude": "171.656959",
    "Altitude": "4",
    "EDI": null
  },
  {
    "name": "Dyess Army Air Field",
    "code": "5489",
    "type": "small_airport",
    "location": "Roi-Namur",
    "country_id": "302770",
    "country_code": "MH",
    "IATA": null,
    "ICAO": null,
    "Latitude": "9.39689",
    "Longitude": "167.470993",
    "Altitude": "9",
    "EDI": null
  },
  {
    "name": "Jeh Airport",
    "code": "35203",
    "type": "small_airport",
    "location": "Ailinglapalap Atoll",
    "country_id": "302770",
    "country_code": "MH",
    "IATA": "JEJ",
    "ICAO": null,
    "Latitude": "7.565350055690001",
    "Longitude": "168.962005615",
    "Altitude": "10",
    "EDI": null
  },
  {
    "name": "Wotho Island Airport",
    "code": "32681",
    "type": "small_airport",
    "location": "Wotho Island",
    "country_id": "302770",
    "country_code": "MH",
    "IATA": "WTO",
    "ICAO": null,
    "Latitude": "10.1733",
    "Longitude": "166.003006",
    "Altitude": null,
    "EDI": null
  },
  {
    "name": "Wotje Airport",
    "code": "32680",
    "type": "small_airport",
    "location": "Wotje",
    "country_id": "302770",
    "country_code": "MH",
    "IATA": "WTE",
    "ICAO": null,
    "Latitude": "9.458333",
    "Longitude": "170.238611",
    "Altitude": "4",
    "EDI": null
  },
  {
    "name": "Ujae Atoll Airport",
    "code": "32529",
    "type": "small_airport",
    "location": "Ujae Atoll",
    "country_id": "302770",
    "country_code": "MH",
    "IATA": "UJE",
    "ICAO": null,
    "Latitude": "8.92806",
    "Longitude": "165.761993",
    "Altitude": "29",
    "EDI": null
  },
  {
    "name": "Rongelap Island Airport",
    "code": "32218",
    "type": "small_airport",
    "location": "Rongelap Island",
    "country_id": "302770",
    "country_code": "MH",
    "IATA": "RNP",
    "ICAO": null,
    "Latitude": "11.1572",
    "Longitude": "166.886993",
    "Altitude": null,
    "EDI": null
  },
  {
    "name": "Majkin Airport",
    "code": "35205",
    "type": "small_airport",
    "location": "Majkin",
    "country_id": "302770",
    "country_code": "MH",
    "IATA": "MJE",
    "ICAO": null,
    "Latitude": "8.163362",
    "Longitude": "168.173862",
    "Altitude": "24",
    "EDI": null
  },
  {
    "name": "Namorik Airport",
    "code": "32015",
    "type": "small_airport",
    "location": "Namorik Atoll",
    "country_id": "302770",
    "country_code": "MH",
    "IATA": "NDK",
    "ICAO": null,
    "Latitude": "5.633005",
    "Longitude": "168.125631",
    "Altitude": "15",
    "EDI": null
  },
  {
    "name": "Mili Island Airport",
    "code": "31910",
    "type": "small_airport",
    "location": "Mili Island",
    "country_id": "302770",
    "country_code": "MH",
    "IATA": "MIJ",
    "ICAO": null,
    "Latitude": "6.084754",
    "Longitude": "171.731419",
    "Altitude": "4",
    "EDI": null
  },
  {
    "name": "Mejit Atoll Airport",
    "code": "31913",
    "type": "small_airport",
    "location": "Mejit Atoll",
    "country_id": "302770",
    "country_code": "MH",
    "IATA": "MJB",
    "ICAO": null,
    "Latitude": "10.283302",
    "Longitude": "170.869",
    "Altitude": "5",
    "EDI": null
  },
  {
    "name": "Maloelap Island Airport",
    "code": "31878",
    "type": "small_airport",
    "location": "Maloelap Island",
    "country_id": "302770",
    "country_code": "MH",
    "IATA": "MAV",
    "ICAO": null,
    "Latitude": "8.70444",
    "Longitude": "171.229996",
    "Altitude": "4",
    "EDI": null
  },
  {
    "name": "Kaben Airport",
    "code": "31729",
    "type": "small_airport",
    "location": "Kaben",
    "country_id": "302770",
    "country_code": "MH",
    "IATA": "KBT",
    "ICAO": null,
    "Latitude": "8.90056",
    "Longitude": "170.843994",
    "Altitude": null,
    "EDI": null
  },
  {
    "name": "Likiep Airport",
    "code": "35204",
    "type": "small_airport",
    "location": "Likiep Island",
    "country_id": "302770",
    "country_code": "MH",
    "IATA": "LIK",
    "ICAO": null,
    "Latitude": "9.82316",
    "Longitude": "169.307999",
    "Altitude": null,
    "EDI": null
  },
  {
    "name": "Ailuk Airport",
    "code": "35201",
    "type": "small_airport",
    "location": "Ailuk Island",
    "country_id": "302770",
    "country_code": "MH",
    "IATA": "AIM",
    "ICAO": null,
    "Latitude": "10.2168",
    "Longitude": "169.983002",
    "Altitude": null,
    "EDI": null
  },
  {
    "name": "Woja Airport",
    "code": "35206",
    "type": "small_airport",
    "location": "Woja",
    "country_id": "302770",
    "country_code": "MH",
    "IATA": "WJA",
    "ICAO": null,
    "Latitude": "7.450833",
    "Longitude": "168.55",
    "Altitude": null,
    "EDI": null
  },
  {
    "name": "Aur Island Airport",
    "code": "30661",
    "type": "small_airport",
    "location": "Aur Atoll",
    "country_id": "302770",
    "country_code": "MH",
    "IATA": "AUL",
    "ICAO": null,
    "Latitude": "8.14528",
    "Longitude": "171.173004",
    "Altitude": null,
    "EDI": null
  },
  {
    "name": "Enyu Airfield",
    "code": "30730",
    "type": "small_airport",
    "location": "Bikini Atoll",
    "country_id": "302770",
    "country_code": "MH",
    "IATA": "BII",
    "ICAO": null,
    "Latitude": "11.5225",
    "Longitude": "165.565002",
    "Altitude": null,
    "EDI": null
  },
  {
    "name": "Jabot Airport",
    "code": "35202",
    "type": "small_airport",
    "location": "Ailinglapalap Atoll",
    "country_id": "302770",
    "country_code": "MH",
    "IATA": "JAT",
    "ICAO": null,
    "Latitude": "7.749775",
    "Longitude": "168.977838",
    "Altitude": "20",
    "EDI": null
  },
  {
    "name": "Jaluit Airport",
    "code": "32527",
    "type": "small_airport",
    "location": "Jabor Jaluit Atoll",
    "country_id": "302770",
    "country_code": "MH",
    "IATA": "UIT",
    "ICAO": null,
    "Latitude": "5.909213",
    "Longitude": "169.637256",
    "Altitude": "4",
    "EDI": null
  },
  {
    "name": "Enejit Airport",
    "code": "317874",
    "type": "small_airport",
    "location": "Enejit Island",
    "country_id": "302770",
    "country_code": "MH",
    "IATA": "EJT",
    "ICAO": null,
    "Latitude": "6.0404",
    "Longitude": "171.9846",
    "Altitude": "30",
    "EDI": null
  },
  {
    "name": "Tinak Airport",
    "code": "32447",
    "type": "small_airport",
    "location": "Arno Atoll",
    "country_id": "302770",
    "country_code": "MH",
    "IATA": "TIC",
    "ICAO": null,
    "Latitude": "7.121768",
    "Longitude": "171.911584",
    "Altitude": "4",
    "EDI": null
  },
  {
    "name": "Ailinglaplap Airok Airport",
    "code": "299328",
    "type": "small_airport",
    "location": "Bigatyelang Island",
    "country_id": "302770",
    "country_code": "MH",
    "IATA": "AIC",
    "ICAO": null,
    "Latitude": "7.279422",
    "Longitude": "168.8257",
    "Altitude": "16",
    "EDI": null
  },
  {
    "name": "Ebon Airport",
    "code": "312833",
    "type": "small_airport",
    "location": "Ebon Atoll",
    "country_id": "302770",
    "country_code": "MH",
    "IATA": "EBO",
    "ICAO": null,
    "Latitude": "4.5982",
    "Longitude": "168.752",
    "Altitude": "8",
    "EDI": null
  },
  {
    "name": "Lae Island Airport",
    "code": "31834",
    "type": "small_airport",
    "location": "Lae Island",
    "country_id": "302770",
    "country_code": "MH",
    "IATA": "LML",
    "ICAO": null,
    "Latitude": "8.92111",
    "Longitude": "166.264999",
    "Altitude": null,
    "EDI": null
  },
  {
    "name": "Tabal Airstrip",
    "code": "309427",
    "type": "small_airport",
    "location": "Tabal Island",
    "country_id": "302770",
    "country_code": "MH",
    "IATA": "TBV",
    "ICAO": null,
    "Latitude": "8.3027",
    "Longitude": "171.1615",
    "Altitude": "32",
    "EDI": null
  },
  {
    "name": "Elenak Airport",
    "code": "302489",
    "type": "small_airport",
    "location": "Mejato Island",
    "country_id": "302770",
    "country_code": "MH",
    "IATA": "EAL",
    "ICAO": null,
    "Latitude": "9.319305555560002",
    "Longitude": "166.847777778",
    "Altitude": "16",
    "EDI": null
  },
  {
    "name": "Ebadon Airport",
    "code": "30976",
    "type": "small_airport",
    "location": "Ebadon Island",
    "country_id": "302770",
    "country_code": "MH",
    "IATA": "EBN",
    "ICAO": null,
    "Latitude": "9.330559730529785",
    "Longitude": "166.82000732421875",
    "Altitude": null,
    "EDI": null
  },
  {
    "name": "Majuro Airfield",
    "code": "356002",
    "type": "closed",
    "location": "Majuro",
    "country_id": "302770",
    "country_code": "MH",
    "IATA": null,
    "ICAO": null,
    "Latitude": "7.090278",
    "Longitude": "171.381389",
    "Altitude": "26",
    "EDI": null
  },
  {
    "name": "Jaluit Seaplane Base",
    "code": "340647",
    "type": "closed",
    "location": "Aineman",
    "country_id": "302770",
    "country_code": "MH",
    "IATA": null,
    "ICAO": null,
    "Latitude": "6.013587",
    "Longitude": "169.718234",
    "Altitude": null,
    "EDI": null
  },
  {
    "name": "Loen Airport",
    "code": "313920",
    "type": "closed",
    "location": "Loen Island",
    "country_id": "302770",
    "country_code": "MH",
    "IATA": null,
    "ICAO": null,
    "Latitude": "7.7575",
    "Longitude": "168.2357",
    "Altitude": "23",
    "EDI": null
  }
]