[
  {
    "name": "Nouadhibou International Airport",
    "code": "3138",
    "type": "medium_airport",
    "location": "Nouadhibou",
    "country_id": "302587",
    "country_code": "MR",
    "IATA": "NDB",
    "ICAO": "GQPP",
    "Latitude": "20.9330997467041",
    "Longitude": "-17.030000686645508",
    "Altitude": "24",
    "EDI": null
  },
  {
    "name": "Atar International Airport",
    "code": "3137",
    "type": "medium_airport",
    "location": "Atar",
    "country_id": "302587",
    "country_code": "MR",
    "IATA": "ATR",
    "ICAO": "GQPA",
    "Latitude": "20.506799697875977",
    "Longitude": "-13.04319953918457",
    "Altitude": "734",
    "EDI": null
  },
  {
    "name": "Néma Airport",
    "code": "3133",
    "type": "small_airport",
    "location": "Néma",
    "country_id": "302587",
    "country_code": "MR",
    "IATA": "EMN",
    "ICAO": "GQNI",
    "Latitude": "16.622",
    "Longitude": "-7.3166",
    "Altitude": "745",
    "EDI": null
  },
  {
    "name": "Aioun el Atrouss Airport",
    "code": "3130",
    "type": "small_airport",
    "location": "Aioun El Atrouss",
    "country_id": "302587",
    "country_code": "MR",
    "IATA": "AEO",
    "ICAO": "GQNA",
    "Latitude": "16.711299896240234",
    "Longitude": "-9.637880325317383",
    "Altitude": "951",
    "EDI": null
  },
  {
    "name": "Kiffa Airport",
    "code": "3132",
    "type": "small_airport",
    "location": "Kiffa",
    "country_id": "302587",
    "country_code": "MR",
    "IATA": "KFA",
    "ICAO": "GQNF",
    "Latitude": "16.59",
    "Longitude": "-11.4062",
    "Altitude": "430",
    "EDI": null
  },
  {
    "name": "Kaédi Airport",
    "code": "3134",
    "type": "small_airport",
    "location": "Kaédi",
    "country_id": "302587",
    "country_code": "MR",
    "IATA": "KED",
    "ICAO": "GQNK",
    "Latitude": "16.1595",
    "Longitude": "-13.5076",
    "Altitude": "75",
    "EDI": null
  },
  {
    "name": "Tidjikja Airport",
    "code": "3131",
    "type": "small_airport",
    "location": "Tidjikja",
    "country_id": "302587",
    "country_code": "MR",
    "IATA": "TIY",
    "ICAO": "GQND",
    "Latitude": "18.570101",
    "Longitude": "-11.4235",
    "Altitude": "1342",
    "EDI": null
  },
  {
    "name": "Sélibaby Airport",
    "code": "3136",
    "type": "small_airport",
    "location": "Sélibaby",
    "country_id": "302587",
    "country_code": "MR",
    "IATA": "SEY",
    "ICAO": "GQNS",
    "Latitude": "15.179699897766113",
    "Longitude": "-12.207300186157227",
    "Altitude": "219",
    "EDI": null
  },
  {
    "name": "Nouakchott International Airport",
    "code": "3135",
    "type": "closed",
    "location": "Nouakchott",
    "country_id": "302587",
    "country_code": "MR",
    "IATA": null,
    "ICAO": null,
    "Latitude": "18.09754",
    "Longitude": "-15.948222",
    "Altitude": "13",
    "EDI": null
  },
  {
    "name": "Bir Moghrein Airport",
    "code": "3139",
    "type": "small_airport",
    "location": "Bir Moghrein",
    "country_id": "302587",
    "country_code": "MR",
    "IATA": null,
    "ICAO": null,
    "Latitude": "25.183531",
    "Longitude": "-11.609001",
    "Altitude": "1148",
    "EDI": null
  },
  {
    "name": "Nouakchott–Oumtounsy International Airport",
    "code": "323315",
    "type": "large_airport",
    "location": "Nouakchott",
    "country_id": "302587",
    "country_code": "MR",
    "IATA": "NKC",
    "ICAO": "GQNO",
    "Latitude": "18.31",
    "Longitude": "-15.969722",
    "Altitude": "9",
    "EDI": null
  },
  {
    "name": "Akjoujt Airport",
    "code": "30630",
    "type": "small_airport",
    "location": "Akjoujt",
    "country_id": "302587",
    "country_code": "MR",
    "IATA": "AJJ",
    "ICAO": "GQNJ",
    "Latitude": "19.727998",
    "Longitude": "-14.377214",
    "Altitude": "403",
    "EDI": null
  },
  {
    "name": "Chegga Airport",
    "code": "513281",
    "type": "small_airport",
    "location": "Chegga",
    "country_id": "302587",
    "country_code": "MR",
    "IATA": null,
    "ICAO": null,
    "Latitude": "25.365756",
    "Longitude": "-5.74055",
    "Altitude": "1291",
    "EDI": null
  },
  {
    "name": "Bassikounou Airport",
    "code": "351855",
    "type": "small_airport",
    "location": "Bassikounou",
    "country_id": "302587",
    "country_code": "MR",
    "IATA": null,
    "ICAO": null,
    "Latitude": "15.8872",
    "Longitude": "-5.91618",
    "Altitude": "866",
    "EDI": null
  },
  {
    "name": "Twajeel Airport",
    "code": "347423",
    "type": "small_airport",
    "location": "Twajeel",
    "country_id": "302587",
    "country_code": "MR",
    "IATA": null,
    "ICAO": null,
    "Latitude": "22.16864",
    "Longitude": "-12.68248",
    "Altitude": "1198",
    "EDI": null
  },
  {
    "name": "Tazadit Airport",
    "code": "32135",
    "type": "small_airport",
    "location": "Zouérate",
    "country_id": "302587",
    "country_code": "MR",
    "IATA": "OUZ",
    "ICAO": "GQPZ",
    "Latitude": "22.757345",
    "Longitude": "-12.482228",
    "Altitude": "1119",
    "EDI": null
  },
  {
    "name": "Fderik Airport",
    "code": "31126",
    "type": "small_airport",
    "location": "Fderik",
    "country_id": "302587",
    "country_code": "MR",
    "IATA": "FGD",
    "ICAO": "GQPF",
    "Latitude": "22.673551",
    "Longitude": "-12.729262",
    "Altitude": "961",
    "EDI": null
  },
  {
    "name": "Taziazet Mine Airport",
    "code": "347424",
    "type": "small_airport",
    "location": "Taziazet",
    "country_id": "302587",
    "country_code": "MR",
    "IATA": null,
    "ICAO": null,
    "Latitude": "20.58434",
    "Longitude": "-15.47742",
    "Altitude": "364",
    "EDI": null
  },
  {
    "name": "Tichitt Airport",
    "code": "32444",
    "type": "small_airport",
    "location": "Tichitt",
    "country_id": "302587",
    "country_code": "MR",
    "IATA": "THI",
    "ICAO": "GQNC",
    "Latitude": "18.433942",
    "Longitude": "-9.486411",
    "Altitude": "561",
    "EDI": null
  },
  {
    "name": "Dahara Airport",
    "code": "31548",
    "type": "small_airport",
    "location": "Timbreda",
    "country_id": "302587",
    "country_code": "MR",
    "IATA": null,
    "ICAO": null,
    "Latitude": "16.299999237060547",
    "Longitude": "-8.050000190734863",
    "Altitude": "722",
    "EDI": null
  },
  {
    "name": "Timbedra Airport",
    "code": "32461",
    "type": "small_airport",
    "location": "Timbedra",
    "country_id": "302587",
    "country_code": "MR",
    "IATA": "TMD",
    "ICAO": "GQNH",
    "Latitude": "16.233671",
    "Longitude": "-8.163464",
    "Altitude": "692",
    "EDI": null
  },
  {
    "name": "Rosso Airport",
    "code": "353303",
    "type": "small_airport",
    "location": "Rosso",
    "country_id": "302587",
    "country_code": "MR",
    "IATA": null,
    "ICAO": null,
    "Latitude": "16.547614",
    "Longitude": "-15.790227",
    "Altitude": "23",
    "EDI": null
  },
  {
    "name": "Boutilimit Airport",
    "code": "32131",
    "type": "small_airport",
    "location": "Boutilimit",
    "country_id": "302587",
    "country_code": "MR",
    "IATA": "OTL",
    "ICAO": "GQNB",
    "Latitude": "17.52832",
    "Longitude": "-14.71412",
    "Altitude": "121",
    "EDI": null
  },
  {
    "name": "Letfotar Airport",
    "code": "31934",
    "type": "small_airport",
    "location": "Moudjeria",
    "country_id": "302587",
    "country_code": "MR",
    "IATA": "MOM",
    "ICAO": "GQNL",
    "Latitude": "17.75",
    "Longitude": "-12.5",
    "Altitude": "256",
    "EDI": null
  },
  {
    "name": "Abbaye Airport",
    "code": "30699",
    "type": "small_airport",
    "location": "Boghe",
    "country_id": "302587",
    "country_code": "MR",
    "IATA": "BGH",
    "ICAO": "GQNE",
    "Latitude": "16.63331413269043",
    "Longitude": "-14.200000762939453",
    "Altitude": "66",
    "EDI": null
  },
  {
    "name": "Tamchakett Airport",
    "code": "32446",
    "type": "small_airport",
    "location": "Tamchakett",
    "country_id": "302587",
    "country_code": "MR",
    "IATA": "THT",
    "ICAO": "GQNT",
    "Latitude": "17.23157",
    "Longitude": "-10.77923",
    "Altitude": "620",
    "EDI": null
  },
  {
    "name": "Choum Heliport",
    "code": "429800",
    "type": "heliport",
    "location": "Choum",
    "country_id": "302587",
    "country_code": "MR",
    "IATA": null,
    "ICAO": null,
    "Latitude": "21.30503",
    "Longitude": "-13.0665",
    "Altitude": null,
    "EDI": null
  },
  {
    "name": "Chinguetti Airport",
    "code": "312503",
    "type": "closed",
    "location": "Chinguetti",
    "country_id": "302587",
    "country_code": "MR",
    "IATA": null,
    "ICAO": null,
    "Latitude": "20.5055",
    "Longitude": "-12.3978",
    "Altitude": "1775",
    "EDI": null
  },
  {
    "name": "Aleg Airport",
    "code": "429810",
    "type": "closed",
    "location": "Aleg",
    "country_id": "302587",
    "country_code": "MR",
    "IATA": null,
    "ICAO": null,
    "Latitude": "17.06862",
    "Longitude": "-13.9084",
    "Altitude": null,
    "EDI": null
  },
  {
    "name": "Old Bir Moghrein Airport",
    "code": "347421",
    "type": "closed",
    "location": "Bir Moghrein",
    "country_id": "302587",
    "country_code": "MR",
    "IATA": null,
    "ICAO": null,
    "Latitude": "25.23513",
    "Longitude": "-11.58825",
    "Altitude": "1240",
    "EDI": null
  },
  {
    "name": "Bou Gara Airport",
    "code": "318017",
    "type": "closed",
    "location": "Bou Gara",
    "country_id": "302587",
    "country_code": "MR",
    "IATA": null,
    "ICAO": null,
    "Latitude": "16.5334",
    "Longitude": "-10.7912",
    "Altitude": "520",
    "EDI": null
  },
  {
    "name": "Bassikounou Heliport",
    "code": "351857",
    "type": "heliport",
    "location": "Bassikounou",
    "country_id": "302587",
    "country_code": "MR",
    "IATA": null,
    "ICAO": null,
    "Latitude": "15.88407",
    "Longitude": "-5.92856",
    "Altitude": "866",
    "EDI": null
  },
  {
    "name": "Fassala Heliport",
    "code": "351856",
    "type": "heliport",
    "location": "Fassala",
    "country_id": "302587",
    "country_code": "MR",
    "IATA": null,
    "ICAO": null,
    "Latitude": "15.55045",
    "Longitude": "-5.51966",
    "Altitude": "866",
    "EDI": null
  },
  {
    "name": "Old Néma Airport",
    "code": "318016",
    "type": "closed",
    "location": "Néma",
    "country_id": "302587",
    "country_code": "MR",
    "IATA": null,
    "ICAO": null,
    "Latitude": "16.6057",
    "Longitude": "-7.2835",
    "Altitude": "820",
    "EDI": null
  }
]