[
  {
    "name": "Hosea Kutako International Airport",
    "code": "3039",
    "type": "large_airport",
    "location": "Windhoek",
    "country_id": "302591",
    "country_code": "NA",
    "IATA": "WDH",
    "ICAO": "FYWH",
    "Latitude": "-22.4799",
    "Longitude": "17.4709",
    "Altitude": "5640",
    "EDI": null
  },
  {
    "name": "Luderitz Airport",
    "code": "3029",
    "type": "medium_airport",
    "location": "Luderitz",
    "country_id": "302591",
    "country_code": "NA",
    "IATA": "LUD",
    "ICAO": "FYLZ",
    "Latitude": "-26.687400817871094",
    "Longitude": "15.242899894714355",
    "Altitude": "457",
    "EDI": null
  },
  {
    "name": "Oranjemund Airport",
    "code": "3032",
    "type": "medium_airport",
    "location": "Oranjemund",
    "country_id": "302591",
    "country_code": "NA",
    "IATA": "OMD",
    "ICAO": "FYOG",
    "Latitude": "-28.5847",
    "Longitude": "16.446699",
    "Altitude": "14",
    "EDI": null
  },
  {
    "name": "Ondangwa Airport",
    "code": "3031",
    "type": "medium_airport",
    "location": "Ondangwa",
    "country_id": "302591",
    "country_code": "NA",
    "IATA": "OND",
    "ICAO": "FYOA",
    "Latitude": "-17.878201",
    "Longitude": "15.9526",
    "Altitude": "3599",
    "EDI": null
  },
  {
    "name": "Katima Mulilo Airport",
    "code": "3027",
    "type": "medium_airport",
    "location": "Mpacha",
    "country_id": "302591",
    "country_code": "NA",
    "IATA": "MPA",
    "ICAO": "FYKM",
    "Latitude": "-17.634258",
    "Longitude": "24.176688",
    "Altitude": "3144",
    "EDI": null
  },
  {
    "name": "Walvis Bay Airport",
    "code": "3037",
    "type": "medium_airport",
    "location": "Rooikop",
    "country_id": "302591",
    "country_code": "NA",
    "IATA": "WVB",
    "ICAO": "FYWB",
    "Latitude": "-22.979332",
    "Longitude": "14.647102",
    "Altitude": "299",
    "EDI": null
  },
  {
    "name": "Rundu Airport",
    "code": "3035",
    "type": "medium_airport",
    "location": "Rundu",
    "country_id": "302591",
    "country_code": "NA",
    "IATA": "NDU",
    "ICAO": "FYRU",
    "Latitude": "-17.956499099731",
    "Longitude": "19.719400405884",
    "Altitude": "3627",
    "EDI": null
  },
  {
    "name": "Arandis Airport",
    "code": "3024",
    "type": "medium_airport",
    "location": "Arandis",
    "country_id": "302591",
    "country_code": "NA",
    "IATA": "ADI",
    "ICAO": "FYAR",
    "Latitude": "-22.461875",
    "Longitude": "14.979322",
    "Altitude": "1905",
    "EDI": null
  },
  {
    "name": "Mariental Airport",
    "code": "3030",
    "type": "medium_airport",
    "location": "Mariental",
    "country_id": "302591",
    "country_code": "NA",
    "IATA": null,
    "ICAO": null,
    "Latitude": "-24.6054",
    "Longitude": "17.9254",
    "Altitude": "3650",
    "EDI": null
  },
  {
    "name": "Keetmanshoop Airport",
    "code": "3028",
    "type": "medium_airport",
    "location": "Keetmanshoop",
    "country_id": "302591",
    "country_code": "NA",
    "IATA": "KMP",
    "ICAO": "FYKT",
    "Latitude": "-26.539801",
    "Longitude": "18.111401",
    "Altitude": "3506",
    "EDI": null
  },
  {
    "name": "Grootfontein Airport",
    "code": "3026",
    "type": "medium_airport",
    "location": "Grootfontein",
    "country_id": "302591",
    "country_code": "NA",
    "IATA": "GFY",
    "ICAO": "FYGF",
    "Latitude": "-19.6022",
    "Longitude": "18.1227",
    "Altitude": "4636",
    "EDI": null
  },
  {
    "name": "Tsumeb Airport",
    "code": "3036",
    "type": "medium_airport",
    "location": "Tsumeb",
    "country_id": "302591",
    "country_code": "NA",
    "IATA": "TSB",
    "ICAO": "FYTM",
    "Latitude": "-19.26189994812",
    "Longitude": "17.732500076294",
    "Altitude": "4353",
    "EDI": null
  },
  {
    "name": "Rosh Pinah Airport",
    "code": "3034",
    "type": "closed",
    "location": "Rosh Pinah",
    "country_id": "302591",
    "country_code": "NA",
    "IATA": null,
    "ICAO": null,
    "Latitude": "-27.9643",
    "Longitude": "16.753901",
    "Altitude": "1274",
    "EDI": null
  },
  {
    "name": "Ruacana Airport",
    "code": "3033",
    "type": "small_airport",
    "location": "Ruacana",
    "country_id": "302591",
    "country_code": "NA",
    "IATA": null,
    "ICAO": null,
    "Latitude": "-17.420601",
    "Longitude": "14.3717",
    "Altitude": "3765",
    "EDI": null
  },
  {
    "name": "Eenhana Airport",
    "code": "3025",
    "type": "small_airport",
    "location": "Eenhana",
    "country_id": "302591",
    "country_code": "NA",
    "IATA": null,
    "ICAO": null,
    "Latitude": "-17.483",
    "Longitude": "16.322001",
    "Altitude": "3660",
    "EDI": null
  },
  {
    "name": "Eros Airport",
    "code": "3038",
    "type": "medium_airport",
    "location": "Windhoek",
    "country_id": "302591",
    "country_code": "NA",
    "IATA": "ERS",
    "ICAO": "FYWE",
    "Latitude": "-22.612199783325195",
    "Longitude": "17.080400466918945",
    "Altitude": "5575",
    "EDI": null
  },
  {
    "name": "Swakopmund Municipal Aerodrome",
    "code": "29627",
    "type": "small_airport",
    "location": "Swakopmund",
    "country_id": "302591",
    "country_code": "NA",
    "IATA": "SWP",
    "ICAO": "FYSM",
    "Latitude": "-22.6619",
    "Longitude": "14.5681",
    "Altitude": "207",
    "EDI": null
  },
  {
    "name": "Halali Airport",
    "code": "312717",
    "type": "small_airport",
    "location": "Halali",
    "country_id": "302591",
    "country_code": "NA",
    "IATA": "HAL",
    "ICAO": "FYHI",
    "Latitude": "-19.0285",
    "Longitude": "16.4585",
    "Altitude": "3639",
    "EDI": null
  },
  {
    "name": "Rheinpfalz Landing Site",
    "code": "42378",
    "type": "small_airport",
    "location": null,
    "country_id": "302591",
    "country_code": "NA",
    "IATA": null,
    "ICAO": null,
    "Latitude": "-23.538126",
    "Longitude": "17.991291",
    "Altitude": "4362",
    "EDI": null
  },
  {
    "name": "Orutjandja Airport",
    "code": "345910",
    "type": "small_airport",
    "location": null,
    "country_id": "302591",
    "country_code": "NA",
    "IATA": null,
    "ICAO": null,
    "Latitude": "-18.8839",
    "Longitude": "13.481598",
    "Altitude": "2477",
    "EDI": null
  },
  {
    "name": "Hoanib Airstrip",
    "code": "345677",
    "type": "small_airport",
    "location": null,
    "country_id": "302591",
    "country_code": "NA",
    "IATA": null,
    "ICAO": null,
    "Latitude": "-19.3864",
    "Longitude": "13.1327",
    "Altitude": "936",
    "EDI": null
  },
  {
    "name": "Moewe Bay Airport",
    "code": "345675",
    "type": "small_airport",
    "location": null,
    "country_id": "302591",
    "country_code": "NA",
    "IATA": null,
    "ICAO": null,
    "Latitude": "-19.392",
    "Longitude": "12.7422",
    "Altitude": "30",
    "EDI": null
  },
  {
    "name": "Doro Nawas Airstrip",
    "code": "345673",
    "type": "small_airport",
    "location": null,
    "country_id": "302591",
    "country_code": "NA",
    "IATA": null,
    "ICAO": null,
    "Latitude": "-20.4475",
    "Longitude": "14.2931",
    "Altitude": "1525",
    "EDI": null
  },
  {
    "name": "Sesfontein Airport",
    "code": "345672",
    "type": "small_airport",
    "location": null,
    "country_id": "302591",
    "country_code": "NA",
    "IATA": null,
    "ICAO": null,
    "Latitude": "-19.10185",
    "Longitude": "13.64785",
    "Altitude": "1800",
    "EDI": null
  },
  {
    "name": "Hartmann Valley Airstrip",
    "code": "345671",
    "type": "small_airport",
    "location": "Otjinhungwa",
    "country_id": "302591",
    "country_code": "NA",
    "IATA": null,
    "ICAO": "FYHV",
    "Latitude": "-17.377134",
    "Longitude": "12.254745",
    "Altitude": "2045",
    "EDI": null
  },
  {
    "name": "Ongava Lodge Airstrip",
    "code": "326993",
    "type": "small_airport",
    "location": "Ombika",
    "country_id": "302591",
    "country_code": "NA",
    "IATA": "OGV",
    "ICAO": "FYNG",
    "Latitude": "-19.328533",
    "Longitude": "15.915003",
    "Altitude": "3740",
    "EDI": null
  },
  {
    "name": "Ehomba Airport",
    "code": "318535",
    "type": "small_airport",
    "location": "Ehomba",
    "country_id": "302591",
    "country_code": "NA",
    "IATA": null,
    "ICAO": null,
    "Latitude": "-17.488",
    "Longitude": "13.836836",
    "Altitude": null,
    "EDI": null
  },
  {
    "name": "Palmwag Airport",
    "code": "318534",
    "type": "small_airport",
    "location": "Palmwag",
    "country_id": "302591",
    "country_code": "NA",
    "IATA": null,
    "ICAO": null,
    "Latitude": "-19.873201",
    "Longitude": "13.943931",
    "Altitude": null,
    "EDI": null
  },
  {
    "name": "Okongwati Airport",
    "code": "318396",
    "type": "small_airport",
    "location": "Okongwati",
    "country_id": "302591",
    "country_code": "NA",
    "IATA": null,
    "ICAO": null,
    "Latitude": "-17.43873",
    "Longitude": "13.2782",
    "Altitude": null,
    "EDI": null
  },
  {
    "name": "Khorixas Airport",
    "code": "318395",
    "type": "small_airport",
    "location": "Khorixas",
    "country_id": "302591",
    "country_code": "NA",
    "IATA": null,
    "ICAO": "FYKX",
    "Latitude": "-20.366192",
    "Longitude": "15.059298",
    "Altitude": "3353",
    "EDI": null
  },
  {
    "name": "Opuwa Airport",
    "code": "318394",
    "type": "small_airport",
    "location": "Opuwa",
    "country_id": "302591",
    "country_code": "NA",
    "IATA": "OPW",
    "ICAO": "FYOP",
    "Latitude": "-18.061424",
    "Longitude": "13.85047",
    "Altitude": "3770",
    "EDI": null
  },
  {
    "name": "Terrace Bay Airport",
    "code": "309424",
    "type": "small_airport",
    "location": "Terrace Bay",
    "country_id": "302591",
    "country_code": "NA",
    "IATA": "TCY",
    "ICAO": "FYTE",
    "Latitude": "-19.9713",
    "Longitude": "13.0249",
    "Altitude": "32",
    "EDI": null
  },
  {
    "name": "Rag Rock Airport",
    "code": "30316",
    "type": "small_airport",
    "location": "Twyfelfontein",
    "country_id": "302591",
    "country_code": "NA",
    "IATA": null,
    "ICAO": null,
    "Latitude": "-20.536484",
    "Longitude": "14.428286",
    "Altitude": "1923",
    "EDI": null
  },
  {
    "name": "Outjo Airport",
    "code": "29611",
    "type": "small_airport",
    "location": "Outjo",
    "country_id": "302591",
    "country_code": "NA",
    "IATA": null,
    "ICAO": null,
    "Latitude": "-20.075300216675",
    "Longitude": "16.124700546265",
    "Altitude": "4334",
    "EDI": null
  },
  {
    "name": "Okaukuejo Airport",
    "code": "29600",
    "type": "small_airport",
    "location": "Okaukuejo",
    "country_id": "302591",
    "country_code": "NA",
    "IATA": "OKF",
    "ICAO": "FYOO",
    "Latitude": "-19.1492",
    "Longitude": "15.9119",
    "Altitude": "3911",
    "EDI": null
  },
  {
    "name": "Kamanjab Airport",
    "code": "29568",
    "type": "small_airport",
    "location": "Kamanjab",
    "country_id": "302591",
    "country_code": "NA",
    "IATA": null,
    "ICAO": null,
    "Latitude": "-19.520599",
    "Longitude": "14.8233",
    "Altitude": "4259",
    "EDI": null
  },
  {
    "name": "Veronica Gliding Center",
    "code": "527623",
    "type": "small_airport",
    "location": "Veronica",
    "country_id": "302591",
    "country_code": "NA",
    "IATA": null,
    "ICAO": null,
    "Latitude": "-23.433285",
    "Longitude": "18.269556",
    "Altitude": "4347",
    "EDI": null
  },
  {
    "name": "Isibis Airstrip",
    "code": "315399",
    "type": "small_airport",
    "location": "Isibis",
    "country_id": "302591",
    "country_code": "NA",
    "IATA": null,
    "ICAO": null,
    "Latitude": "-23.4178",
    "Longitude": "16.5075",
    "Altitude": "5600",
    "EDI": null
  },
  {
    "name": "Otjihaenena Landing Strip",
    "code": "42404",
    "type": "small_airport",
    "location": "Otjihaenena",
    "country_id": "302591",
    "country_code": "NA",
    "IATA": null,
    "ICAO": null,
    "Latitude": "-22.290283203125",
    "Longitude": "17.77138328552246",
    "Altitude": "5276",
    "EDI": null
  },
  {
    "name": "Okapanje Airport",
    "code": "42399",
    "type": "small_airport",
    "location": "Okapanje",
    "country_id": "302591",
    "country_code": "NA",
    "IATA": null,
    "ICAO": null,
    "Latitude": "-22.58916664123535",
    "Longitude": "17.96554946899414",
    "Altitude": "4922",
    "EDI": null
  },
  {
    "name": "Aris Landrig Strip",
    "code": "42398",
    "type": "small_airport",
    "location": "Aris",
    "country_id": "302591",
    "country_code": "NA",
    "IATA": null,
    "ICAO": null,
    "Latitude": "-22.756383895874023",
    "Longitude": "17.13526725769043",
    "Altitude": "5820",
    "EDI": null
  },
  {
    "name": "Krumneck Airport",
    "code": "42395",
    "type": "small_airport",
    "location": "Krumneck",
    "country_id": "302591",
    "country_code": "NA",
    "IATA": null,
    "ICAO": null,
    "Latitude": "-22.961383819580078",
    "Longitude": "16.934450149536133",
    "Altitude": "5768",
    "EDI": null
  },
  {
    "name": "Bergland Landing  Strip",
    "code": "42394",
    "type": "small_airport",
    "location": null,
    "country_id": "302591",
    "country_code": "NA",
    "IATA": null,
    "ICAO": null,
    "Latitude": "-22.973333",
    "Longitude": "17.144716",
    "Altitude": "5517",
    "EDI": null
  },
  {
    "name": "Oamites Landing Strip",
    "code": "42393",
    "type": "small_airport",
    "location": "Oamites",
    "country_id": "302591",
    "country_code": "NA",
    "IATA": null,
    "ICAO": null,
    "Latitude": "-23.00749969482422",
    "Longitude": "17.1169490814209",
    "Altitude": "5450",
    "EDI": null
  },
  {
    "name": "Doornpoort Airstrip",
    "code": "42392",
    "type": "small_airport",
    "location": null,
    "country_id": "302591",
    "country_code": "NA",
    "IATA": null,
    "ICAO": null,
    "Latitude": "-23.073883056640625",
    "Longitude": "18.051382064819336",
    "Altitude": "4597",
    "EDI": null
  },
  {
    "name": "Garib Landing Site",
    "code": "42390",
    "type": "small_airport",
    "location": "Garib",
    "country_id": "302591",
    "country_code": "NA",
    "IATA": null,
    "ICAO": null,
    "Latitude": "-23.135000228881836",
    "Longitude": "17.63279914855957",
    "Altitude": "4750",
    "EDI": null
  },
  {
    "name": "Greub Landing Site",
    "code": "29557",
    "type": "small_airport",
    "location": null,
    "country_id": "302591",
    "country_code": "NA",
    "IATA": null,
    "ICAO": null,
    "Latitude": "-23.12190055847168",
    "Longitude": "16.733600616455078",
    "Altitude": "5604",
    "EDI": null
  },
  {
    "name": "Omega Airport",
    "code": "29605",
    "type": "small_airport",
    "location": "Omega",
    "country_id": "302591",
    "country_code": "NA",
    "IATA": "OMG",
    "ICAO": "FYOE",
    "Latitude": "-18.0303",
    "Longitude": "22.189699",
    "Altitude": "3346",
    "EDI": null
  },
  {
    "name": "Sikereti Airport",
    "code": "318404",
    "type": "small_airport",
    "location": "Sikereti",
    "country_id": "302591",
    "country_code": "NA",
    "IATA": null,
    "ICAO": null,
    "Latitude": "-19.104117",
    "Longitude": "20.698375",
    "Altitude": null,
    "EDI": null
  },
  {
    "name": "Dordabis Carpet Airport",
    "code": "29551",
    "type": "small_airport",
    "location": "Dordabis",
    "country_id": "302591",
    "country_code": "NA",
    "IATA": null,
    "ICAO": null,
    "Latitude": "-22.95439910888672",
    "Longitude": "17.639699935913086",
    "Altitude": "4970",
    "EDI": null
  }
]