[
  {
    "name": "Jorge Chávez International Airport",
    "code": "6217",
    "type": "large_airport",
    "location": "Lima",
    "country_id": "302798",
    "country_code": "PE",
    "IATA": "LIM",
    "ICAO": "SPJC",
    "Latitude": "-12.0219",
    "Longitude": "-77.114305",
    "Altitude": "113",
    "EDI": null
  },
  {
    "name": "Alejandro Velasco Astete International Airport",
    "code": "6243",
    "type": "large_airport",
    "location": "Cusco",
    "country_id": "302798",
    "country_code": "PE",
    "IATA": "CUZ",
    "ICAO": "SPZO",
    "Latitude": "-13.535699844400002",
    "Longitude": "-71.9387969971",
    "Altitude": "10860",
    "EDI": null
  },
  {
    "name": "Cap FAP David Abenzur Rengifo International Airport",
    "code": "6205",
    "type": "medium_airport",
    "location": "Pucallpa",
    "country_id": "302798",
    "country_code": "PE",
    "IATA": "PCL",
    "ICAO": "SPCL",
    "Latitude": "-8.37794017791748",
    "Longitude": "-74.57430267333984",
    "Altitude": "513",
    "EDI": null
  },
  {
    "name": "Captain Pedro Canga Rodríguez International Airport",
    "code": "6226",
    "type": "medium_airport",
    "location": "Tumbes",
    "country_id": "302798",
    "country_code": "PE",
    "IATA": "TBP",
    "ICAO": "SPME",
    "Latitude": "-3.552074",
    "Longitude": "-80.381086",
    "Altitude": "115",
    "EDI": null
  },
  {
    "name": "Coronel FAP Carlos Ciriani Santa Rosa International Airport",
    "code": "6238",
    "type": "medium_airport",
    "location": "Tacna",
    "country_id": "302798",
    "country_code": "PE",
    "IATA": "TCQ",
    "ICAO": "SPTN",
    "Latitude": "-18.053300857500002",
    "Longitude": "-70.2758026123",
    "Altitude": "1538",
    "EDI": null
  },
  {
    "name": "Inca Manco Capac International Airport",
    "code": "6222",
    "type": "medium_airport",
    "location": "Juliaca",
    "country_id": "302798",
    "country_code": "PE",
    "IATA": "JUL",
    "ICAO": "SPJL",
    "Latitude": "-15.467100143432617",
    "Longitude": "-70.158203125",
    "Altitude": "12552",
    "EDI": null
  },
  {
    "name": "Captain Victor Montes Arias International Airport",
    "code": "6241",
    "type": "medium_airport",
    "location": "Talara",
    "country_id": "302798",
    "country_code": "PE",
    "IATA": "TYL",
    "ICAO": "SPYL",
    "Latitude": "-4.57664",
    "Longitude": "-81.254097",
    "Altitude": "282",
    "EDI": null
  },
  {
    "name": "Padre Aldamiz International Airport",
    "code": "6239",
    "type": "medium_airport",
    "location": "Puerto Maldonado",
    "country_id": "302798",
    "country_code": "PE",
    "IATA": "PEM",
    "ICAO": "SPTU",
    "Latitude": "-12.6135997772",
    "Longitude": "-69.2285995483",
    "Altitude": "659",
    "EDI": null
  },
  {
    "name": "Coronel FAP Francisco Secada Vignetta International Airport",
    "code": "6232",
    "type": "medium_airport",
    "location": "Iquitos",
    "country_id": "302798",
    "country_code": "PE",
    "IATA": "IQT",
    "ICAO": "SPQT",
    "Latitude": "-3.78474",
    "Longitude": "-73.3088",
    "Altitude": "306",
    "EDI": null
  },
  {
    "name": "Air Force Captain Jose A Quinones Gonzales International Airport",
    "code": "6213",
    "type": "medium_airport",
    "location": "Chiclayo",
    "country_id": "302798",
    "country_code": "PE",
    "IATA": "CIX",
    "ICAO": "SPHI",
    "Latitude": "-6.78748",
    "Longitude": "-79.828102",
    "Altitude": "97",
    "EDI": null
  },
  {
    "name": "Alferez Fap David Figueroa Fernandini Airport",
    "code": "6229",
    "type": "medium_airport",
    "location": "Huánuco",
    "country_id": "302798",
    "country_code": "PE",
    "IATA": "HUU",
    "ICAO": "SPNC",
    "Latitude": "-9.878809928894043",
    "Longitude": "-76.20480346679688",
    "Altitude": "6070",
    "EDI": null
  },
  {
    "name": "Mayor General FAP Armando Revoredo Iglesias Airport",
    "code": "6223",
    "type": "medium_airport",
    "location": "Cajamarca",
    "country_id": "302798",
    "country_code": "PE",
    "IATA": "CJA",
    "ICAO": "SPJR",
    "Latitude": "-7.13918",
    "Longitude": "-78.489403",
    "Altitude": "8781",
    "EDI": null
  },
  {
    "name": "Air Force Colonel Alfredo Mendivil Duarte Airport",
    "code": "6214",
    "type": "medium_airport",
    "location": "Ayacucho",
    "country_id": "302798",
    "country_code": "PE",
    "IATA": "AYP",
    "ICAO": "SPHO",
    "Latitude": "-13.1548",
    "Longitude": "-74.204399",
    "Altitude": "8917",
    "EDI": null
  },
  {
    "name": "Rodríguez Ballón International Airport",
    "code": "6233",
    "type": "medium_airport",
    "location": "Arequipa",
    "country_id": "302798",
    "country_code": "PE",
    "IATA": "AQP",
    "ICAO": "SPQU",
    "Latitude": "-16.3411006927",
    "Longitude": "-71.5830993652",
    "Altitude": "8405",
    "EDI": null
  },
  {
    "name": "FAP Lieutenant Jaime Andres de Montreuil Morales Airport",
    "code": "6208",
    "type": "medium_airport",
    "location": "Chimbote",
    "country_id": "302798",
    "country_code": "PE",
    "IATA": "CHM",
    "ICAO": "SPEO",
    "Latitude": "-9.14961",
    "Longitude": "-78.523804",
    "Altitude": "69",
    "EDI": null
  },
  {
    "name": "Francisco Carle Airport",
    "code": "6221",
    "type": "medium_airport",
    "location": "Jauja",
    "country_id": "302798",
    "country_code": "PE",
    "IATA": "JAU",
    "ICAO": "SPJJ",
    "Latitude": "-11.7831001282",
    "Longitude": "-75.47339630130001",
    "Altitude": "11034",
    "EDI": null
  },
  {
    "name": "General Jorge Fernandez Maldon Airport",
    "code": "6224",
    "type": "medium_airport",
    "location": "Ilo",
    "country_id": "302798",
    "country_code": "PE",
    "IATA": "ILQ",
    "ICAO": "SPLO",
    "Latitude": "-17.695",
    "Longitude": "-71.344002",
    "Altitude": "72",
    "EDI": null
  },
  {
    "name": "Chachapoyas Airport",
    "code": "6231",
    "type": "medium_airport",
    "location": "Chachapoyas",
    "country_id": "302798",
    "country_code": "PE",
    "IATA": "CHH",
    "ICAO": "SPPY",
    "Latitude": "-6.201911",
    "Longitude": "-77.856195",
    "Altitude": "8333",
    "EDI": null
  },
  {
    "name": "Captain Renán Elías Olivera International Airport",
    "code": "6236",
    "type": "medium_airport",
    "location": "Pisco",
    "country_id": "302798",
    "country_code": "PE",
    "IATA": "PIO",
    "ICAO": "SPSO",
    "Latitude": "-13.7449",
    "Longitude": "-76.220299",
    "Altitude": "39",
    "EDI": null
  },
  {
    "name": "Juanjui Airport",
    "code": "6220",
    "type": "medium_airport",
    "location": "Juanjuí",
    "country_id": "302798",
    "country_code": "PE",
    "IATA": "JJI",
    "ICAO": "SPJI",
    "Latitude": "-7.1691",
    "Longitude": "-76.7286",
    "Altitude": "1148",
    "EDI": null
  },
  {
    "name": "Andahuaylas Airport",
    "code": "6215",
    "type": "small_airport",
    "location": "Andahuaylas",
    "country_id": "302798",
    "country_code": "PE",
    "IATA": "ANS",
    "ICAO": "SPHY",
    "Latitude": "-13.706399917602539",
    "Longitude": "-73.35040283203125",
    "Altitude": "11300",
    "EDI": null
  },
  {
    "name": "Las Palmas Air Base",
    "code": "6225",
    "type": "small_airport",
    "location": "Chorrillos",
    "country_id": "302798",
    "country_code": "PE",
    "IATA": null,
    "ICAO": null,
    "Latitude": "-12.16069984436",
    "Longitude": "-76.998901367188",
    "Altitude": "250",
    "EDI": null
  },
  {
    "name": "Maria Reiche Neuman Airport",
    "code": "6242",
    "type": "medium_airport",
    "location": "Nazca",
    "country_id": "302798",
    "country_code": "PE",
    "IATA": "NZC",
    "ICAO": "SPZA",
    "Latitude": "-14.854",
    "Longitude": "-74.961502",
    "Altitude": "1860",
    "EDI": null
  },
  {
    "name": "Capitan FAP Carlos Martinez De Pinillos International Airport",
    "code": "6235",
    "type": "medium_airport",
    "location": "Trujillo",
    "country_id": "302798",
    "country_code": "PE",
    "IATA": "TRU",
    "ICAO": "SPRU",
    "Latitude": "-8.08141040802002",
    "Longitude": "-79.10880279541016",
    "Altitude": "106",
    "EDI": null
  },
  {
    "name": "Cadete FAP Guillermo Del Castillo Paredes Airport",
    "code": "6237",
    "type": "medium_airport",
    "location": "Tarapoto",
    "country_id": "302798",
    "country_code": "PE",
    "IATA": "TPP",
    "ICAO": "SPST",
    "Latitude": "-6.508739948272705",
    "Longitude": "-76.37319946289062",
    "Altitude": "869",
    "EDI": null
  },
  {
    "name": "Caballococha Airport",
    "code": "6203",
    "type": "medium_airport",
    "location": "Caballococha",
    "country_id": "302798",
    "country_code": "PE",
    "IATA": null,
    "ICAO": null,
    "Latitude": "-3.91686010361",
    "Longitude": "-70.5082015991",
    "Altitude": "328",
    "EDI": null
  },
  {
    "name": "Capitán FAP Guillermo Concha Iberico International Airport",
    "code": "6240",
    "type": "medium_airport",
    "location": "Piura",
    "country_id": "302798",
    "country_code": "PE",
    "IATA": "PIU",
    "ICAO": "SPUR",
    "Latitude": "-5.20574998856",
    "Longitude": "-80.61640167239999",
    "Altitude": "120",
    "EDI": null
  },
  {
    "name": "Moises Benzaquen Rengifo Airport",
    "code": "6228",
    "type": "medium_airport",
    "location": "Yurimaguas",
    "country_id": "302798",
    "country_code": "PE",
    "IATA": "YMS",
    "ICAO": "SPMS",
    "Latitude": "-5.89377",
    "Longitude": "-76.118202",
    "Altitude": "587",
    "EDI": null
  },
  {
    "name": "Shumba Airport",
    "code": "6219",
    "type": "medium_airport",
    "location": "Jaén",
    "country_id": "302798",
    "country_code": "PE",
    "IATA": "JAE",
    "ICAO": "SPJE",
    "Latitude": "-5.59248",
    "Longitude": "-78.774002",
    "Altitude": "2477",
    "EDI": null
  },
  {
    "name": "Comandante FAP German Arias Graziani Airport",
    "code": "6216",
    "type": "medium_airport",
    "location": "Anta",
    "country_id": "302798",
    "country_code": "PE",
    "IATA": "ATA",
    "ICAO": "SPHZ",
    "Latitude": "-9.347439765930176",
    "Longitude": "-77.59839630126953",
    "Altitude": "9097",
    "EDI": null
  },
  {
    "name": "Teniente General Gerardo Pérez Pinedo Airport",
    "code": "6202",
    "type": "medium_airport",
    "location": "Atalaya",
    "country_id": "302798",
    "country_code": "PE",
    "IATA": "AYX",
    "ICAO": "SPAY",
    "Latitude": "-10.7291",
    "Longitude": "-73.766502",
    "Altitude": "751",
    "EDI": null
  },
  {
    "name": "Juan Simons Vela Airport",
    "code": "6218",
    "type": "medium_airport",
    "location": "Rioja",
    "country_id": "302798",
    "country_code": "PE",
    "IATA": "RIJ",
    "ICAO": "SPJA",
    "Latitude": "-6.06786",
    "Longitude": "-77.160004",
    "Altitude": "2707",
    "EDI": null
  },
  {
    "name": "Iberia Airport",
    "code": "6204",
    "type": "medium_airport",
    "location": "Iberia",
    "country_id": "302798",
    "country_code": "PE",
    "IATA": "IBP",
    "ICAO": "SPBR",
    "Latitude": "-11.4116",
    "Longitude": "-69.488701",
    "Altitude": "750",
    "EDI": null
  },
  {
    "name": "Puerto Esperanza Airport",
    "code": "6209",
    "type": "small_airport",
    "location": "Esperanza",
    "country_id": "302798",
    "country_code": "PE",
    "IATA": null,
    "ICAO": null,
    "Latitude": "-9.76813",
    "Longitude": "-70.706497",
    "Altitude": "725",
    "EDI": null
  },
  {
    "name": "Galilea Airport",
    "code": "6211",
    "type": "small_airport",
    "location": null,
    "country_id": "302798",
    "country_code": "PE",
    "IATA": null,
    "ICAO": null,
    "Latitude": "-4.03188",
    "Longitude": "-77.758797",
    "Altitude": "597",
    "EDI": null
  },
  {
    "name": "Huancabamba Airport",
    "code": "6200",
    "type": "small_airport",
    "location": "Huancabamba",
    "country_id": "302798",
    "country_code": "PE",
    "IATA": null,
    "ICAO": null,
    "Latitude": "-5.256770133972168",
    "Longitude": "-79.44290161132812",
    "Altitude": "6312",
    "EDI": null
  },
  {
    "name": "Cesar Torke Podesta Airport",
    "code": "6210",
    "type": "small_airport",
    "location": "Moquegua",
    "country_id": "302798",
    "country_code": "PE",
    "IATA": null,
    "ICAO": null,
    "Latitude": "-17.179001",
    "Longitude": "-70.930801",
    "Altitude": "4480",
    "EDI": null
  },
  {
    "name": "Güeppi­ Airport",
    "code": "6212",
    "type": "small_airport",
    "location": null,
    "country_id": "302798",
    "country_code": "PE",
    "IATA": null,
    "ICAO": null,
    "Latitude": "-0.119056",
    "Longitude": "-75.247902",
    "Altitude": "680",
    "EDI": null
  },
  {
    "name": "Trompeteros Airport",
    "code": "6206",
    "type": "small_airport",
    "location": "Corrientes",
    "country_id": "302798",
    "country_code": "PE",
    "IATA": "TDP",
    "ICAO": "SPDR",
    "Latitude": "-3.80601",
    "Longitude": "-75.039299",
    "Altitude": "427",
    "EDI": null
  },
  {
    "name": "Alferez FAP Alfredo Vladimir Sara Bauer Airport",
    "code": "6201",
    "type": "small_airport",
    "location": "Andoas",
    "country_id": "302798",
    "country_code": "PE",
    "IATA": "AOP",
    "ICAO": null,
    "Latitude": "-2.79612994194",
    "Longitude": "-76.46659851070001",
    "Altitude": "728",
    "EDI": null
  },
  {
    "name": "Collique Airport",
    "code": "6230",
    "type": "closed",
    "location": "Collique Bajo",
    "country_id": "302798",
    "country_code": "PE",
    "IATA": null,
    "ICAO": null,
    "Latitude": "-11.9287",
    "Longitude": "-77.061096",
    "Altitude": "410",
    "EDI": null
  },
  {
    "name": "Capitán FAP Leonardo Alvariño Herr Airport",
    "code": "6234",
    "type": "small_airport",
    "location": "San Ramón",
    "country_id": "302798",
    "country_code": "PE",
    "IATA": null,
    "ICAO": null,
    "Latitude": "-11.128600120544434",
    "Longitude": "-75.35050201416016",
    "Altitude": "2600",
    "EDI": null
  },
  {
    "name": "Mayor PNP Nancy Flores Paucar Airport",
    "code": "6227",
    "type": "small_airport",
    "location": "Mazamari",
    "country_id": "302798",
    "country_code": "PE",
    "IATA": "MZA",
    "ICAO": "SPMF",
    "Latitude": "-11.3254",
    "Longitude": "-74.535598",
    "Altitude": "2247",
    "EDI": null
  },
  {
    "name": "Huancayo Airport",
    "code": "39628",
    "type": "small_airport",
    "location": "Huancayo",
    "country_id": "302798",
    "country_code": "PE",
    "IATA": null,
    "ICAO": null,
    "Latitude": "-12.069899559020996",
    "Longitude": "-75.19850158691406",
    "Altitude": "10800",
    "EDI": null
  },
  {
    "name": "Pozuzo Airport",
    "code": "39643",
    "type": "small_airport",
    "location": "Pozuzo",
    "country_id": "302798",
    "country_code": "PE",
    "IATA": null,
    "ICAO": null,
    "Latitude": "-10.070099830627441",
    "Longitude": "-75.55000305175781",
    "Altitude": "2420",
    "EDI": null
  },
  {
    "name": "Olmos Airport",
    "code": "39627",
    "type": "closed",
    "location": "Olmos",
    "country_id": "302798",
    "country_code": "PE",
    "IATA": null,
    "ICAO": null,
    "Latitude": "-5.984722",
    "Longitude": "-79.745277",
    "Altitude": "585",
    "EDI": null
  },
  {
    "name": "Nauta Airport",
    "code": "39656",
    "type": "small_airport",
    "location": "Nauta",
    "country_id": "302798",
    "country_code": "PE",
    "IATA": null,
    "ICAO": null,
    "Latitude": "-4.54186",
    "Longitude": "-73.562951",
    "Altitude": "370",
    "EDI": null
  },
  {
    "name": "Aguaytia Airport",
    "code": "39611",
    "type": "small_airport",
    "location": "Aguaytia",
    "country_id": "302798",
    "country_code": "PE",
    "IATA": null,
    "ICAO": null,
    "Latitude": "-9.037409782409668",
    "Longitude": "-75.50920104980469",
    "Altitude": "5853",
    "EDI": null
  },
  {
    "name": "Santa Maria de Fatima Airport",
    "code": "327366",
    "type": "small_airport",
    "location": null,
    "country_id": "302798",
    "country_code": "PE",
    "IATA": null,
    "ICAO": null,
    "Latitude": "-11.940815",
    "Longitude": "-68.994212",
    "Altitude": "857",
    "EDI": null
  },
  {
    "name": "Shiringayoc Airport",
    "code": "39655",
    "type": "small_airport",
    "location": "Shiringayoc",
    "country_id": "302798",
    "country_code": "PE",
    "IATA": "SYC",
    "ICAO": "SPSY",
    "Latitude": "-11.898",
    "Longitude": "-69.0625",
    "Altitude": "856",
    "EDI": null
  }
]