[
  {
    "name": "Jinnah International Airport",
    "code": "5255",
    "type": "large_airport",
    "location": "Karachi",
    "country_id": "302657",
    "country_code": "PK",
    "IATA": "KHI",
    "ICAO": "OPKC",
    "Latitude": "24.9065",
    "Longitude": "67.160797",
    "Altitude": "100",
    "EDI": null
  },
  {
    "name": "Allama Iqbal International Airport",
    "code": "5257",
    "type": "large_airport",
    "location": "Lahore",
    "country_id": "302657",
    "country_code": "PK",
    "IATA": "LHE",
    "ICAO": "OPLA",
    "Latitude": "31.521601",
    "Longitude": "74.403603",
    "Altitude": "712",
    "EDI": null
  },
  {
    "name": "Gilgit Airport",
    "code": "5253",
    "type": "medium_airport",
    "location": "Gilgit",
    "country_id": "302657",
    "country_code": "PK",
    "IATA": "GIL",
    "ICAO": "OPGT",
    "Latitude": "35.918800354003906",
    "Longitude": "74.33360290527344",
    "Altitude": "4796",
    "EDI": null
  },
  {
    "name": "Sukkur Airport",
    "code": "5279",
    "type": "medium_airport",
    "location": "Mirpur Khas",
    "country_id": "302657",
    "country_code": "PK",
    "IATA": "SKZ",
    "ICAO": "OPSK",
    "Latitude": "27.722000122070312",
    "Longitude": "68.79170227050781",
    "Altitude": "196",
    "EDI": null
  },
  {
    "name": "Panjgur Airport",
    "code": "5268",
    "type": "medium_airport",
    "location": "Panjgur",
    "country_id": "302657",
    "country_code": "PK",
    "IATA": "PJG",
    "ICAO": "OPPG",
    "Latitude": "26.9545",
    "Longitude": "64.1325",
    "Altitude": "3289",
    "EDI": null
  },
  {
    "name": "Pasni Airport",
    "code": "5269",
    "type": "medium_airport",
    "location": "Pasni",
    "country_id": "302657",
    "country_code": "PK",
    "IATA": "PSI",
    "ICAO": "OPPI",
    "Latitude": "25.290501",
    "Longitude": "63.3451",
    "Altitude": "33",
    "EDI": null
  },
  {
    "name": "Quetta International Airport",
    "code": "5272",
    "type": "medium_airport",
    "location": "Quetta",
    "country_id": "302657",
    "country_code": "PK",
    "IATA": "UET",
    "ICAO": "OPQT",
    "Latitude": "30.251399993896484",
    "Longitude": "66.93779754638672",
    "Altitude": "5267",
    "EDI": null
  },
  {
    "name": "Turbat International Airport",
    "code": "5283",
    "type": "medium_airport",
    "location": "Turbat",
    "country_id": "302657",
    "country_code": "PK",
    "IATA": "TUK",
    "ICAO": "OPTU",
    "Latitude": "25.986400604248047",
    "Longitude": "63.03020095825195",
    "Altitude": "498",
    "EDI": null
  },
  {
    "name": "Zhob Airport",
    "code": "5285",
    "type": "medium_airport",
    "location": "Fort Sandeman",
    "country_id": "302657",
    "country_code": "PK",
    "IATA": "PZH",
    "ICAO": "OPZB",
    "Latitude": "31.358400344848633",
    "Longitude": "69.4636001586914",
    "Altitude": "4728",
    "EDI": null
  },
  {
    "name": "Gwadar International Airport",
    "code": "5252",
    "type": "medium_airport",
    "location": "Gwadar",
    "country_id": "302657",
    "country_code": "PK",
    "IATA": null,
    "ICAO": "OPGW",
    "Latitude": "25.232391",
    "Longitude": "62.327671",
    "Altitude": "36",
    "EDI": null
  },
  {
    "name": "Peshawar International Airport",
    "code": "5270",
    "type": "medium_airport",
    "location": "Peshawar",
    "country_id": "302657",
    "country_code": "PK",
    "IATA": "PEW",
    "ICAO": "OPPS",
    "Latitude": "33.993900299072266",
    "Longitude": "71.51460266113281",
    "Altitude": "1158",
    "EDI": null
  },
  {
    "name": "Moenjodaro Airport",
    "code": "5262",
    "type": "medium_airport",
    "location": "Moenjodaro",
    "country_id": "302657",
    "country_code": "PK",
    "IATA": "MJD",
    "ICAO": "OPMJ",
    "Latitude": "27.335199",
    "Longitude": "68.143097",
    "Altitude": "154",
    "EDI": null
  },
  {
    "name": "Shaheed Benazirabad Airport",
    "code": "5265",
    "type": "medium_airport",
    "location": "Nawabashah",
    "country_id": "302657",
    "country_code": "PK",
    "IATA": "WNS",
    "ICAO": "OPNH",
    "Latitude": "26.2194",
    "Longitude": "68.390099",
    "Altitude": "95",
    "EDI": null
  },
  {
    "name": "Muzaffarabad Airport",
    "code": "5260",
    "type": "medium_airport",
    "location": "Muzaffarabad",
    "country_id": "302657",
    "country_code": "PK",
    "IATA": "MFG",
    "ICAO": "OPMF",
    "Latitude": "34.339001",
    "Longitude": "73.508598",
    "Altitude": "2691",
    "EDI": null
  },
  {
    "name": "Sui Airport",
    "code": "5281",
    "type": "medium_airport",
    "location": "Sui",
    "country_id": "302657",
    "country_code": "PK",
    "IATA": "SUL",
    "ICAO": "OPSU",
    "Latitude": "28.645099639892578",
    "Longitude": "69.1769027709961",
    "Altitude": "763",
    "EDI": null
  },
  {
    "name": "Shahbaz Air Base",
    "code": "5254",
    "type": "medium_airport",
    "location": "Jacobabad",
    "country_id": "302657",
    "country_code": "PK",
    "IATA": "JAG",
    "ICAO": "OPJA",
    "Latitude": "28.28420066833496",
    "Longitude": "68.44969940185547",
    "Altitude": "185",
    "EDI": null
  },
  {
    "name": "Shamsi Airfield",
    "code": "5461",
    "type": "medium_airport",
    "location": "Washuk",
    "country_id": "302657",
    "country_code": "PK",
    "IATA": null,
    "ICAO": null,
    "Latitude": "27.8465",
    "Longitude": "65.160004",
    "Altitude": "2524",
    "EDI": null
  },
  {
    "name": "Masroor Air Base",
    "code": "5263",
    "type": "medium_airport",
    "location": "Karachi",
    "country_id": "302657",
    "country_code": "PK",
    "IATA": null,
    "ICAO": null,
    "Latitude": "24.893600463867188",
    "Longitude": "66.93879699707031",
    "Altitude": "35",
    "EDI": null
  },
  {
    "name": "Faisal Air Base",
    "code": "5278",
    "type": "medium_airport",
    "location": "Karachi",
    "country_id": "302657",
    "country_code": "PK",
    "IATA": null,
    "ICAO": null,
    "Latitude": "24.87420082092285",
    "Longitude": "67.11849975585938",
    "Altitude": "29",
    "EDI": null
  },
  {
    "name": "UEPL Khaskheli Airstrip",
    "code": "5465",
    "type": "small_airport",
    "location": "Badin",
    "country_id": "302657",
    "country_code": "PK",
    "IATA": null,
    "ICAO": null,
    "Latitude": "24.787201",
    "Longitude": "68.557198",
    "Altitude": "16",
    "EDI": null
  },
  {
    "name": "Kadanwari Airport",
    "code": "5459",
    "type": "small_airport",
    "location": "Chuchra",
    "country_id": "302657",
    "country_code": "PK",
    "IATA": null,
    "ICAO": null,
    "Latitude": "27.2005",
    "Longitude": "69.153801",
    "Altitude": "167",
    "EDI": null
  },
  {
    "name": "Wana Airport",
    "code": "5284",
    "type": "small_airport",
    "location": "Waana",
    "country_id": "302657",
    "country_code": "PK",
    "IATA": "WAF",
    "ICAO": "OPWN",
    "Latitude": "32.3046989440918",
    "Longitude": "69.57039642333984",
    "Altitude": "4550",
    "EDI": null
  },
  {
    "name": "Dadu West Airport",
    "code": "5466",
    "type": "small_airport",
    "location": "Dadu",
    "country_id": "302657",
    "country_code": "PK",
    "IATA": "DDU",
    "ICAO": null,
    "Latitude": "26.740800857543945",
    "Longitude": "67.6666030883789",
    "Altitude": "128",
    "EDI": null
  },
  {
    "name": "Jam Nida Northwest Airport",
    "code": "5469",
    "type": "small_airport",
    "location": "Jam Nida",
    "country_id": "302657",
    "country_code": "PK",
    "IATA": null,
    "ICAO": null,
    "Latitude": "26.198099",
    "Longitude": "67.5037",
    "Altitude": "418",
    "EDI": null
  },
  {
    "name": "Kashmor Airport",
    "code": "5480",
    "type": "small_airport",
    "location": "Kashmor",
    "country_id": "302657",
    "country_code": "PK",
    "IATA": null,
    "ICAO": null,
    "Latitude": "28.470600128173828",
    "Longitude": "69.5990982055664",
    "Altitude": "260",
    "EDI": null
  },
  {
    "name": "Khairpur Airport",
    "code": "5481",
    "type": "small_airport",
    "location": "Khairpur",
    "country_id": "302657",
    "country_code": "PK",
    "IATA": null,
    "ICAO": null,
    "Latitude": "28.036100387573242",
    "Longitude": "69.67489624023438",
    "Altitude": "300",
    "EDI": null
  },
  {
    "name": "Kandhkot Airport",
    "code": "5482",
    "type": "small_airport",
    "location": "Kandhkot",
    "country_id": "302657",
    "country_code": "PK",
    "IATA": null,
    "ICAO": null,
    "Latitude": "28.27400016784668",
    "Longitude": "69.2760009765625",
    "Altitude": "250",
    "EDI": null
  },
  {
    "name": "Pano Aqil Southeast Airport",
    "code": "5486",
    "type": "small_airport",
    "location": "Pano Aqil",
    "country_id": "302657",
    "country_code": "PK",
    "IATA": null,
    "ICAO": null,
    "Latitude": "27.813100814819336",
    "Longitude": "69.16709899902344",
    "Altitude": "200",
    "EDI": null
  },
  {
    "name": "Talhar Airport",
    "code": "5282",
    "type": "small_airport",
    "location": "Badin",
    "country_id": "302657",
    "country_code": "PK",
    "IATA": "BDN",
    "ICAO": "OPTH",
    "Latitude": "24.84149932861328",
    "Longitude": "68.8384017944336",
    "Altitude": "28",
    "EDI": null
  },
  {
    "name": "Robray Airport",
    "code": "5485",
    "type": "small_airport",
    "location": "Kech",
    "country_id": "302657",
    "country_code": "PK",
    "IATA": null,
    "ICAO": null,
    "Latitude": "26.251688",
    "Longitude": "63.129933",
    "Altitude": "1840",
    "EDI": null
  },
  {
    "name": "Juzzak Airport",
    "code": "5484",
    "type": "small_airport",
    "location": "Juzzak",
    "country_id": "302657",
    "country_code": "PK",
    "IATA": null,
    "ICAO": null,
    "Latitude": "29.04050064086914",
    "Longitude": "61.64739990234375",
    "Altitude": "2861",
    "EDI": null
  },
  {
    "name": "Nok Kundi Airport",
    "code": "5483",
    "type": "small_airport",
    "location": "Nok Kundi",
    "country_id": "302657",
    "country_code": "PK",
    "IATA": null,
    "ICAO": null,
    "Latitude": "28.819400787353516",
    "Longitude": "62.7307014465332",
    "Altitude": "2227",
    "EDI": null
  },
  {
    "name": "Dhingar Airport",
    "code": "5479",
    "type": "small_airport",
    "location": "Dhingar",
    "country_id": "302657",
    "country_code": "PK",
    "IATA": null,
    "ICAO": null,
    "Latitude": "29.92329978942871",
    "Longitude": "66.74610137939453",
    "Altitude": "5215",
    "EDI": null
  },
  {
    "name": "Mir Baz Airport",
    "code": "5460",
    "type": "small_airport",
    "location": "Mir Baz",
    "country_id": "302657",
    "country_code": "PK",
    "IATA": null,
    "ICAO": null,
    "Latitude": "31.191082",
    "Longitude": "70.183532",
    "Altitude": "2350",
    "EDI": null
  },
  {
    "name": "Nushki Airport",
    "code": "5266",
    "type": "closed",
    "location": "Nushki",
    "country_id": "302657",
    "country_code": "PK",
    "IATA": null,
    "ICAO": null,
    "Latitude": "29.539",
    "Longitude": "66.0233",
    "Altitude": "3200",
    "EDI": null
  },
  {
    "name": "Kharan Airport",
    "code": "5256",
    "type": "closed",
    "location": "Kharan",
    "country_id": "302657",
    "country_code": "PK",
    "IATA": null,
    "ICAO": null,
    "Latitude": "28.5972",
    "Longitude": "65.422501",
    "Altitude": "2408",
    "EDI": null
  },
  {
    "name": "Skardu Airport",
    "code": "5277",
    "type": "medium_airport",
    "location": "Skardu",
    "country_id": "302657",
    "country_code": "PK",
    "IATA": "KDU",
    "ICAO": "OPSD",
    "Latitude": "35.33549880981445",
    "Longitude": "75.53600311279297",
    "Altitude": "7316",
    "EDI": null
  },
  {
    "name": "Chitral Airport",
    "code": "5248",
    "type": "medium_airport",
    "location": "Chitral",
    "country_id": "302657",
    "country_code": "PK",
    "IATA": "CJL",
    "ICAO": "OPCH",
    "Latitude": "35.886213",
    "Longitude": "71.799922",
    "Altitude": "4920",
    "EDI": null
  },
  {
    "name": "Dera Ismael Khan Airport",
    "code": "5250",
    "type": "medium_airport",
    "location": "Dera Ismael Khan",
    "country_id": "302657",
    "country_code": "PK",
    "IATA": "DSK",
    "ICAO": "OPDI",
    "Latitude": "31.909401",
    "Longitude": "70.896599",
    "Altitude": "594",
    "EDI": null
  },
  {
    "name": "Saidu Sharif Airport",
    "code": "5280",
    "type": "medium_airport",
    "location": "Saidu Sharif",
    "country_id": "302657",
    "country_code": "PK",
    "IATA": "SDT",
    "ICAO": "OPSS",
    "Latitude": "34.813599",
    "Longitude": "72.352798",
    "Altitude": "3183",
    "EDI": null
  },
  {
    "name": "Bahawalpur Airport",
    "code": "5247",
    "type": "medium_airport",
    "location": "Bahawalpur",
    "country_id": "302657",
    "country_code": "PK",
    "IATA": "BHV",
    "ICAO": "OPBW",
    "Latitude": "29.348100662231445",
    "Longitude": "71.71800231933594",
    "Altitude": "392",
    "EDI": null
  },
  {
    "name": "Faisalabad International Airport",
    "code": "5251",
    "type": "medium_airport",
    "location": "Faisalabad",
    "country_id": "302657",
    "country_code": "PK",
    "IATA": "LYP",
    "ICAO": "OPFA",
    "Latitude": "31.364999771118164",
    "Longitude": "72.99479675292969",
    "Altitude": "591",
    "EDI": null
  },
  {
    "name": "Multan International Airport",
    "code": "5264",
    "type": "medium_airport",
    "location": "Multan",
    "country_id": "302657",
    "country_code": "PK",
    "IATA": "MUX",
    "ICAO": "OPMT",
    "Latitude": "30.20319938659668",
    "Longitude": "71.41909790039062",
    "Altitude": "403",
    "EDI": null
  },
  {
    "name": "Rawalakot Airport",
    "code": "5276",
    "type": "medium_airport",
    "location": "Rawalakot",
    "country_id": "302657",
    "country_code": "PK",
    "IATA": "RAZ",
    "ICAO": "OPRT",
    "Latitude": "33.849701",
    "Longitude": "73.798103",
    "Altitude": "5479",
    "EDI": null
  },
  {
    "name": "Risalpur Air Base",
    "code": "5275",
    "type": "medium_airport",
    "location": "Risalpur",
    "country_id": "302657",
    "country_code": "PK",
    "IATA": null,
    "ICAO": null,
    "Latitude": "34.08110046386719",
    "Longitude": "71.97260284423828",
    "Altitude": "1050",
    "EDI": null
  },
  {
    "name": "PAF Base Nur Khan",
    "code": "5274",
    "type": "small_airport",
    "location": "Rawalpindi",
    "country_id": "302657",
    "country_code": "PK",
    "IATA": null,
    "ICAO": null,
    "Latitude": "33.616699",
    "Longitude": "73.099197",
    "Altitude": "1668",
    "EDI": null
  },
  {
    "name": "Islamabad International Airport",
    "code": "333692",
    "type": "large_airport",
    "location": "Attock",
    "country_id": "302657",
    "country_code": "PK",
    "IATA": "ISB",
    "ICAO": "OPIS",
    "Latitude": "33.549",
    "Longitude": "72.82566",
    "Altitude": "1761",
    "EDI": null
  },
  {
    "name": "Shaikh Zaid Airport",
    "code": "5273",
    "type": "medium_airport",
    "location": "Rahim Yar Khan",
    "country_id": "302657",
    "country_code": "PK",
    "IATA": "RYK",
    "ICAO": "OPRK",
    "Latitude": "28.383899688720703",
    "Longitude": "70.27960205078125",
    "Altitude": "271",
    "EDI": null
  },
  {
    "name": "Dera Ghazi Khan Airport",
    "code": "5249",
    "type": "medium_airport",
    "location": "Dera Ghazi Khan",
    "country_id": "302657",
    "country_code": "PK",
    "IATA": "DEA",
    "ICAO": "OPDG",
    "Latitude": "29.961000442504883",
    "Longitude": "70.48590087890625",
    "Altitude": "492",
    "EDI": null
  },
  {
    "name": "Sehwan Sharif Airport",
    "code": "30590",
    "type": "medium_airport",
    "location": "Sehwan Sharif",
    "country_id": "302657",
    "country_code": "PK",
    "IATA": "SYW",
    "ICAO": "OPSN",
    "Latitude": "26.473101",
    "Longitude": "67.717201",
    "Altitude": "121",
    "EDI": null
  }
]