[
  {
    "name": "Luis Munoz Marin International Airport",
    "code": "6384",
    "type": "large_airport",
    "location": "San Juan",
    "country_id": "302751",
    "country_code": "PR",
    "IATA": "SJU",
    "ICAO": "TJSJ",
    "Latitude": "18.4394",
    "Longitude": "-66.001801",
    "Altitude": "9",
    "EDI": null
  },
  {
    "name": "Santa Isabel Airport",
    "code": "5497",
    "type": "small_airport",
    "location": "Santa Isabel",
    "country_id": "302751",
    "country_code": "PR",
    "IATA": null,
    "ICAO": null,
    "Latitude": "17.963199615478516",
    "Longitude": "-66.39119720458984",
    "Altitude": "27",
    "EDI": null
  },
  {
    "name": "Cuylers Airport",
    "code": "6680",
    "type": "small_airport",
    "location": "Vega Baja",
    "country_id": "302751",
    "country_code": "PR",
    "IATA": null,
    "ICAO": null,
    "Latitude": "18.464924",
    "Longitude": "-66.363773",
    "Altitude": "15",
    "EDI": null
  },
  {
    "name": "Rafael Hernández International Airport",
    "code": "6379",
    "type": "medium_airport",
    "location": "Aguadilla",
    "country_id": "302751",
    "country_code": "PR",
    "IATA": "BQN",
    "ICAO": "TJBQ",
    "Latitude": "18.4949",
    "Longitude": "-67.129402",
    "Altitude": "237",
    "EDI": null
  },
  {
    "name": "Eugenio Maria De Hostos Airport",
    "code": "6382",
    "type": "medium_airport",
    "location": "Mayaguez",
    "country_id": "302751",
    "country_code": "PR",
    "IATA": "MAZ",
    "ICAO": "TJMZ",
    "Latitude": "18.255699157714844",
    "Longitude": "-67.14849853515625",
    "Altitude": "28",
    "EDI": null
  },
  {
    "name": "Mercedita Airport",
    "code": "6383",
    "type": "medium_airport",
    "location": "Ponce",
    "country_id": "302751",
    "country_code": "PR",
    "IATA": "PSE",
    "ICAO": "TJPS",
    "Latitude": "18.00830078125",
    "Longitude": "-66.56300354003906",
    "Altitude": "29",
    "EDI": null
  },
  {
    "name": "Antonio Nery Juarbe Pol Airport",
    "code": "6378",
    "type": "medium_airport",
    "location": "Arecibo",
    "country_id": "302751",
    "country_code": "PR",
    "IATA": "ARE",
    "ICAO": "TJAB",
    "Latitude": "18.45085",
    "Longitude": "-66.675768",
    "Altitude": "23",
    "EDI": null
  },
  {
    "name": "Villamil-304 Ponce De Leon Heliport",
    "code": "7793",
    "type": "heliport",
    "location": "San Juan",
    "country_id": "302751",
    "country_code": "PR",
    "IATA": null,
    "ICAO": null,
    "Latitude": "18.42259979248047",
    "Longitude": "-66.05699920654297",
    "Altitude": "148",
    "EDI": null
  },
  {
    "name": "San Patricio Heliport",
    "code": "8626",
    "type": "heliport",
    "location": "Guaynabo",
    "country_id": "302751",
    "country_code": "PR",
    "IATA": null,
    "ICAO": null,
    "Latitude": "18.406099319458008",
    "Longitude": "-66.10600280761719",
    "Altitude": "157",
    "EDI": null
  },
  {
    "name": "La Concepcion Hospital Heliport",
    "code": "9222",
    "type": "heliport",
    "location": "San German",
    "country_id": "302751",
    "country_code": "PR",
    "IATA": null,
    "ICAO": null,
    "Latitude": "18.108699798583984",
    "Longitude": "-67.03939819335938",
    "Altitude": "120",
    "EDI": null
  },
  {
    "name": "Fernando Luis Ribas Dominicci Airport",
    "code": "6381",
    "type": "medium_airport",
    "location": "San Juan",
    "country_id": "302751",
    "country_code": "PR",
    "IATA": "SIG",
    "ICAO": "TJIG",
    "Latitude": "18.45680046081543",
    "Longitude": "-66.09809875488281",
    "Altitude": "10",
    "EDI": null
  },
  {
    "name": "Antonio Rivera Rodriguez Airport",
    "code": "6385",
    "type": "medium_airport",
    "location": "Vieques",
    "country_id": "302751",
    "country_code": "PR",
    "IATA": "VQS",
    "ICAO": "TJVQ",
    "Latitude": "18.1348",
    "Longitude": "-65.493599",
    "Altitude": "49",
    "EDI": null
  },
  {
    "name": "Benjamin Rivera Noriega Airport",
    "code": "42320",
    "type": "medium_airport",
    "location": "Culebra",
    "country_id": "302751",
    "country_code": "PR",
    "IATA": "CPX",
    "ICAO": "TJCP",
    "Latitude": "18.312954",
    "Longitude": "-65.303893",
    "Altitude": "49",
    "EDI": null
  },
  {
    "name": "José Aponte de la Torre Airport",
    "code": "42321",
    "type": "medium_airport",
    "location": "Ceiba",
    "country_id": "302751",
    "country_code": "PR",
    "IATA": "NRR",
    "ICAO": "TJRV",
    "Latitude": "18.2453",
    "Longitude": "-65.643402",
    "Altitude": "38",
    "EDI": null
  },
  {
    "name": "Diego Jiménez Torres Airport",
    "code": "6380",
    "type": "closed",
    "location": "Fajardo",
    "country_id": "302751",
    "country_code": "PR",
    "IATA": null,
    "ICAO": null,
    "Latitude": "18.308901",
    "Longitude": "-65.661903",
    "Altitude": "64",
    "EDI": null
  },
  {
    "name": "Boqueron Airport",
    "code": "24212",
    "type": "closed",
    "location": "Las Piedras",
    "country_id": "302751",
    "country_code": "PR",
    "IATA": null,
    "ICAO": null,
    "Latitude": "18.2019",
    "Longitude": "-65.839104",
    "Altitude": "373",
    "EDI": null
  },
  {
    "name": "Palmas del Mar Airstrip",
    "code": "42318",
    "type": "closed",
    "location": "Palmas del Mar",
    "country_id": "302751",
    "country_code": "PR",
    "IATA": null,
    "ICAO": null,
    "Latitude": "18.086200714111",
    "Longitude": "-65.796501159668",
    "Altitude": "100",
    "EDI": null
  },
  {
    "name": "Dr Hermenegildo Ortiz Quinones Airport",
    "code": "42317",
    "type": "small_airport",
    "location": "Humacao",
    "country_id": "302751",
    "country_code": "PR",
    "IATA": "HUC",
    "ICAO": null,
    "Latitude": "18.138082",
    "Longitude": "-65.800728",
    "Altitude": "33",
    "EDI": null
  },
  {
    "name": "Dorado Beach Airport",
    "code": "42316",
    "type": "closed",
    "location": "Dorado",
    "country_id": "302751",
    "country_code": "PR",
    "IATA": null,
    "ICAO": null,
    "Latitude": "18.4649657136",
    "Longitude": "-66.295580864",
    "Altitude": "75",
    "EDI": null
  },
  {
    "name": "Patillas Airport",
    "code": "26134",
    "type": "small_airport",
    "location": "Patillas",
    "country_id": "302751",
    "country_code": "PR",
    "IATA": null,
    "ICAO": null,
    "Latitude": "17.982200622558594",
    "Longitude": "-66.01930236816406",
    "Altitude": "10",
    "EDI": null
  },
  {
    "name": "Adjuntas Airport",
    "code": "24223",
    "type": "small_airport",
    "location": "Adjuntas",
    "country_id": "302751",
    "country_code": "PR",
    "IATA": null,
    "ICAO": null,
    "Latitude": "18.1802",
    "Longitude": "-66.756897",
    "Altitude": "2340",
    "EDI": null
  },
  {
    "name": "Cullingford Field",
    "code": "24227",
    "type": "small_airport",
    "location": "Boqueron",
    "country_id": "302751",
    "country_code": "PR",
    "IATA": null,
    "ICAO": null,
    "Latitude": "17.97640037536621",
    "Longitude": "-67.1707992553711",
    "Altitude": "14",
    "EDI": null
  },
  {
    "name": "Boqueron Airport",
    "code": "5496",
    "type": "small_airport",
    "location": "Cabo Rojo",
    "country_id": "302751",
    "country_code": "PR",
    "IATA": null,
    "ICAO": null,
    "Latitude": "18.010700225830078",
    "Longitude": "-67.14129638671875",
    "Altitude": "3",
    "EDI": null
  },
  {
    "name": "Vieques Airport",
    "code": "42319",
    "type": "closed",
    "location": "Vieques Island",
    "country_id": "302751",
    "country_code": "PR",
    "IATA": null,
    "ICAO": null,
    "Latitude": "18.115801",
    "Longitude": "-65.422699",
    "Altitude": "19",
    "EDI": null
  },
  {
    "name": "Lajas Airpark",
    "code": "42325",
    "type": "small_airport",
    "location": "Lajas",
    "country_id": "302751",
    "country_code": "PR",
    "IATA": null,
    "ICAO": null,
    "Latitude": "18.0125007629",
    "Longitude": "-67.0691986084",
    "Altitude": "30",
    "EDI": null
  },
  {
    "name": "Labadle Airport",
    "code": "42324",
    "type": "small_airport",
    "location": "Aceitunas",
    "country_id": "302751",
    "country_code": "PR",
    "IATA": null,
    "ICAO": null,
    "Latitude": "18.448699951171875",
    "Longitude": "-67.0625991821289",
    "Altitude": "540",
    "EDI": null
  },
  {
    "name": "Fort Allen Airport",
    "code": "42323",
    "type": "small_airport",
    "location": "Potala Pastillo",
    "country_id": "302751",
    "country_code": "PR",
    "IATA": null,
    "ICAO": null,
    "Latitude": "18.008399963378906",
    "Longitude": "-66.50669860839844",
    "Altitude": "31",
    "EDI": null
  },
  {
    "name": "Mona Airport",
    "code": "42322",
    "type": "small_airport",
    "location": "Mona Island",
    "country_id": "302751",
    "country_code": "PR",
    "IATA": null,
    "ICAO": null,
    "Latitude": "18.07651",
    "Longitude": "-67.931628",
    "Altitude": "1",
    "EDI": null
  },
  {
    "name": "Mora Development Corp Heliport",
    "code": "24239",
    "type": "heliport",
    "location": "Hato Rey",
    "country_id": "302751",
    "country_code": "PR",
    "IATA": null,
    "ICAO": null,
    "Latitude": "18.415300369262695",
    "Longitude": "-66.07579803466797",
    "Altitude": "50",
    "EDI": null
  },
  {
    "name": "Sabanera Heliport",
    "code": "24238",
    "type": "heliport",
    "location": "Cidra",
    "country_id": "302751",
    "country_code": "PR",
    "IATA": null,
    "ICAO": null,
    "Latitude": "18.190799713134766",
    "Longitude": "-66.12079620361328",
    "Altitude": "1350",
    "EDI": null
  },
  {
    "name": "Empresas Diaz-Rio Pedras Heliport",
    "code": "24237",
    "type": "heliport",
    "location": "San Juan",
    "country_id": "302751",
    "country_code": "PR",
    "IATA": null,
    "ICAO": null,
    "Latitude": "18.395072",
    "Longitude": "-66.051283",
    "Altitude": "154",
    "EDI": null
  },
  {
    "name": "San Juan Seaplane Base",
    "code": "24236",
    "type": "seaplane_base",
    "location": "San Juan",
    "country_id": "302751",
    "country_code": "PR",
    "IATA": null,
    "ICAO": null,
    "Latitude": "18.457799911499997",
    "Longitude": "-66.1211013794",
    "Altitude": "10",
    "EDI": null
  },
  {
    "name": "Bayamon Regional Hospital Heliport",
    "code": "24235",
    "type": "heliport",
    "location": "Bayamon",
    "country_id": "302751",
    "country_code": "PR",
    "IATA": null,
    "ICAO": null,
    "Latitude": "18.36750030517578",
    "Longitude": "-66.15380096435547",
    "Altitude": "110",
    "EDI": null
  },
  {
    "name": "Hospital Alejandro Otero Lopez Heliport",
    "code": "24234",
    "type": "heliport",
    "location": "Manati",
    "country_id": "302751",
    "country_code": "PR",
    "IATA": null,
    "ICAO": null,
    "Latitude": "18.4335994720459",
    "Longitude": "-66.48359680175781",
    "Altitude": "116",
    "EDI": null
  },
  {
    "name": "San Juan Steam Plant Heliport",
    "code": "24233",
    "type": "closed",
    "location": "San Juan",
    "country_id": "302751",
    "country_code": "PR",
    "IATA": null,
    "ICAO": null,
    "Latitude": "18.42794",
    "Longitude": "-66.105605",
    "Altitude": "60",
    "EDI": null
  },
  {
    "name": "Prtc Office Building Heliport",
    "code": "24232",
    "type": "heliport",
    "location": "San Juan",
    "country_id": "302751",
    "country_code": "PR",
    "IATA": null,
    "ICAO": null,
    "Latitude": "18.411100387573242",
    "Longitude": "-66.10160064697266",
    "Altitude": "175",
    "EDI": null
  },
  {
    "name": "Villamil-Mayaguez Mall Heliport",
    "code": "24231",
    "type": "heliport",
    "location": "Mayaguez",
    "country_id": "302751",
    "country_code": "PR",
    "IATA": null,
    "ICAO": null,
    "Latitude": "18.158899307250977",
    "Longitude": "-67.14640045166016",
    "Altitude": "82",
    "EDI": null
  },
  {
    "name": "R.H. Heliport",
    "code": "24230",
    "type": "heliport",
    "location": "Isabela",
    "country_id": "302751",
    "country_code": "PR",
    "IATA": null,
    "ICAO": null,
    "Latitude": "18.494199752807617",
    "Longitude": "-67.02420043945312",
    "Altitude": "24",
    "EDI": null
  },
  {
    "name": "Villa Marina Heliport",
    "code": "24229",
    "type": "heliport",
    "location": "Fajardo",
    "country_id": "302751",
    "country_code": "PR",
    "IATA": null,
    "ICAO": null,
    "Latitude": "18.331300735473633",
    "Longitude": "-65.63289642333984",
    "Altitude": "15",
    "EDI": null
  },
  {
    "name": "Public Buildings Authority Heliport",
    "code": "24225",
    "type": "heliport",
    "location": "San Juan",
    "country_id": "302751",
    "country_code": "PR",
    "IATA": null,
    "ICAO": null,
    "Latitude": "18.449199676513672",
    "Longitude": "-66.06639862060547",
    "Altitude": "81",
    "EDI": null
  },
  {
    "name": "Hato Rey Heliport",
    "code": "24207",
    "type": "heliport",
    "location": "San Juan",
    "country_id": "302751",
    "country_code": "PR",
    "IATA": null,
    "ICAO": null,
    "Latitude": "18.419200897216797",
    "Longitude": "-66.05670166015625",
    "Altitude": "35",
    "EDI": null
  },
  {
    "name": "Prasa-La Plata Heliport",
    "code": "24208",
    "type": "heliport",
    "location": "Toa Alta",
    "country_id": "302751",
    "country_code": "PR",
    "IATA": null,
    "ICAO": null,
    "Latitude": "18.352500915527344",
    "Longitude": "-66.23639678955078",
    "Altitude": "361",
    "EDI": null
  },
  {
    "name": "Fajardo Harbor Seaplane Base",
    "code": "24209",
    "type": "seaplane_base",
    "location": "Fajardo",
    "country_id": "302751",
    "country_code": "PR",
    "IATA": null,
    "ICAO": null,
    "Latitude": "18.33970069885254",
    "Longitude": "-65.62460327148438",
    "Altitude": null,
    "EDI": null
  },
  {
    "name": "Squibb Heliport",
    "code": "24210",
    "type": "heliport",
    "location": "Humacao",
    "country_id": "302751",
    "country_code": "PR",
    "IATA": null,
    "ICAO": null,
    "Latitude": "18.148799896240234",
    "Longitude": "-65.7938003540039",
    "Altitude": "16",
    "EDI": null
  },
  {
    "name": "Hill Heliport",
    "code": "24211",
    "type": "heliport",
    "location": "Culebra",
    "country_id": "302751",
    "country_code": "PR",
    "IATA": null,
    "ICAO": null,
    "Latitude": "18.299999237060547",
    "Longitude": "-65.2833023071289",
    "Altitude": "80",
    "EDI": null
  },
  {
    "name": "Baxter-San German Heliport",
    "code": "24213",
    "type": "heliport",
    "location": "San German",
    "country_id": "302751",
    "country_code": "PR",
    "IATA": null,
    "ICAO": null,
    "Latitude": "18.08609962463379",
    "Longitude": "-67.02799987792969",
    "Altitude": "211",
    "EDI": null
  },
  {
    "name": "Sabalos Ward Heliport",
    "code": "24214",
    "type": "heliport",
    "location": "Mayaguez",
    "country_id": "302751",
    "country_code": "PR",
    "IATA": null,
    "ICAO": null,
    "Latitude": "18.17609977722168",
    "Longitude": "-67.14669799804688",
    "Altitude": "34",
    "EDI": null
  },
  {
    "name": "State Government Number One Heliport",
    "code": "24216",
    "type": "heliport",
    "location": "San Juan",
    "country_id": "302751",
    "country_code": "PR",
    "IATA": null,
    "ICAO": null,
    "Latitude": "18.449399948120117",
    "Longitude": "-66.06659698486328",
    "Altitude": "269",
    "EDI": null
  },
  {
    "name": "Insular Government Number Two Heliport",
    "code": "24217",
    "type": "heliport",
    "location": "San Juan",
    "country_id": "302751",
    "country_code": "PR",
    "IATA": null,
    "ICAO": null,
    "Latitude": "18.417400360107422",
    "Longitude": "-66.07769775390625",
    "Altitude": "168",
    "EDI": null
  },
  {
    "name": "Orama-Iayuya Heliport",
    "code": "24218",
    "type": "heliport",
    "location": "Jayuya",
    "country_id": "302751",
    "country_code": "PR",
    "IATA": null,
    "ICAO": null,
    "Latitude": "18.21109962463379",
    "Longitude": "-66.62930297851562",
    "Altitude": "1463",
    "EDI": null
  }
]