[
  {
    "name": "Bucharest Henri Coandă International Airport",
    "code": "4482",
    "type": "large_airport",
    "location": "Otopeni",
    "country_id": "302712",
    "country_code": "RO",
    "IATA": "OTP",
    "ICAO": "LROP",
    "Latitude": "44.572127",
    "Longitude": "26.103396",
    "Altitude": "314",
    "EDI": null
  },
  {
    "name": "Bucharest Băneasa Aurel Vlaicu International Airport",
    "code": "4474",
    "type": "medium_airport",
    "location": "Bucharest",
    "country_id": "302712",
    "country_code": "RO",
    "IATA": "BBU",
    "ICAO": "LRBS",
    "Latitude": "44.503201",
    "Longitude": "26.1021",
    "Altitude": "297",
    "EDI": null
  },
  {
    "name": "Timişoara Traian Vuia Airport",
    "code": "4488",
    "type": "medium_airport",
    "location": "Timişoara",
    "country_id": "302712",
    "country_code": "RO",
    "IATA": "TSR",
    "ICAO": "LRTR",
    "Latitude": "45.809898",
    "Longitude": "21.3379",
    "Altitude": "348",
    "EDI": null
  },
  {
    "name": "Suceava Stefan cel Mare Airport",
    "code": "4485",
    "type": "medium_airport",
    "location": "Suceava",
    "country_id": "302712",
    "country_code": "RO",
    "IATA": "SCV",
    "ICAO": "LRSV",
    "Latitude": "47.6875",
    "Longitude": "26.35409927368164",
    "Altitude": "1375",
    "EDI": null
  },
  {
    "name": "Satu Mare International Airport",
    "code": "4484",
    "type": "medium_airport",
    "location": "Satu Mare",
    "country_id": "302712",
    "country_code": "RO",
    "IATA": "SUJ",
    "ICAO": "LRSM",
    "Latitude": "47.7033",
    "Longitude": "22.8857",
    "Altitude": "405",
    "EDI": null
  },
  {
    "name": "Sibiu International Airport",
    "code": "4483",
    "type": "medium_airport",
    "location": "Sibiu",
    "country_id": "302712",
    "country_code": "RO",
    "IATA": "SBZ",
    "ICAO": "LRSB",
    "Latitude": "45.785841",
    "Longitude": "24.086666",
    "Altitude": "1496",
    "EDI": null
  },
  {
    "name": "Târgu Mureş Transilvania International Airport",
    "code": "4487",
    "type": "medium_airport",
    "location": "Recea",
    "country_id": "302712",
    "country_code": "RO",
    "IATA": "TGM",
    "ICAO": "LRTM",
    "Latitude": "46.467701",
    "Longitude": "24.4125",
    "Altitude": "963",
    "EDI": null
  },
  {
    "name": "Maramureș International Airport",
    "code": "4473",
    "type": "medium_airport",
    "location": "Tăuții-Măgherăuș",
    "country_id": "302712",
    "country_code": "RO",
    "IATA": "BAY",
    "ICAO": "LRBM",
    "Latitude": "47.658444",
    "Longitude": "23.464445",
    "Altitude": "605",
    "EDI": null
  },
  {
    "name": "Iaşi Airport",
    "code": "4480",
    "type": "medium_airport",
    "location": "Iaşi",
    "country_id": "302712",
    "country_code": "RO",
    "IATA": "IAS",
    "ICAO": "LRIA",
    "Latitude": "47.180278",
    "Longitude": "27.620833",
    "Altitude": "411",
    "EDI": null
  },
  {
    "name": "Mihail Kogălniceanu International Airport",
    "code": "4475",
    "type": "medium_airport",
    "location": "Mihail Kogălniceanu",
    "country_id": "302712",
    "country_code": "RO",
    "IATA": "CND",
    "ICAO": "LRCK",
    "Latitude": "44.362202",
    "Longitude": "28.4883",
    "Altitude": "353",
    "EDI": null
  },
  {
    "name": "Cluj Avram Iancu International Airport",
    "code": "4476",
    "type": "medium_airport",
    "location": "Cluj-Napoca",
    "country_id": "302712",
    "country_code": "RO",
    "IATA": "CLJ",
    "ICAO": "LRCL",
    "Latitude": "46.787425",
    "Longitude": "23.684292",
    "Altitude": "1039",
    "EDI": null
  },
  {
    "name": "Oradea International Airport",
    "code": "4481",
    "type": "medium_airport",
    "location": "Oradea",
    "country_id": "302712",
    "country_code": "RO",
    "IATA": "OMR",
    "ICAO": "LROD",
    "Latitude": "47.025299072265625",
    "Longitude": "21.90250015258789",
    "Altitude": "465",
    "EDI": null
  },
  {
    "name": "Bacău George Enescu International  Airport",
    "code": "4472",
    "type": "medium_airport",
    "location": "Bacău",
    "country_id": "302712",
    "country_code": "RO",
    "IATA": "BCM",
    "ICAO": "LRBC",
    "Latitude": "46.5219",
    "Longitude": "26.910299",
    "Altitude": "607",
    "EDI": null
  },
  {
    "name": "Arad International Airport",
    "code": "4471",
    "type": "medium_airport",
    "location": "Arad",
    "country_id": "302712",
    "country_code": "RO",
    "IATA": "ARW",
    "ICAO": "LRAR",
    "Latitude": "46.176601",
    "Longitude": "21.261999",
    "Altitude": "352",
    "EDI": null
  },
  {
    "name": "Craiova International Airport",
    "code": "4479",
    "type": "medium_airport",
    "location": "Craiova",
    "country_id": "302712",
    "country_code": "RO",
    "IATA": "CRA",
    "ICAO": "LRCV",
    "Latitude": "44.3181",
    "Longitude": "23.888599",
    "Altitude": "626",
    "EDI": null
  },
  {
    "name": "Caransebeş Airport",
    "code": "4477",
    "type": "medium_airport",
    "location": "Caransebeş",
    "country_id": "302712",
    "country_code": "RO",
    "IATA": "CSB",
    "ICAO": "LRCS",
    "Latitude": "45.420142",
    "Longitude": "22.252507",
    "Altitude": "866",
    "EDI": null
  },
  {
    "name": "Feteşti Borcea Air Base",
    "code": "5668",
    "type": "medium_airport",
    "location": "Borcea",
    "country_id": "302712",
    "country_code": "RO",
    "IATA": null,
    "ICAO": null,
    "Latitude": "44.3923",
    "Longitude": "27.7267",
    "Altitude": "180",
    "EDI": null
  },
  {
    "name": "Boboc Air Base",
    "code": "5670",
    "type": "medium_airport",
    "location": "Boboc",
    "country_id": "302712",
    "country_code": "RO",
    "IATA": null,
    "ICAO": null,
    "Latitude": "45.2164",
    "Longitude": "26.9786",
    "Altitude": "344",
    "EDI": null
  },
  {
    "name": "Ianca Air Base",
    "code": "5667",
    "type": "medium_airport",
    "location": "Ianca",
    "country_id": "302712",
    "country_code": "RO",
    "IATA": null,
    "ICAO": null,
    "Latitude": "45.158699",
    "Longitude": "27.430901",
    "Altitude": "131",
    "EDI": null
  },
  {
    "name": "Tulcea Danube Delta Airport",
    "code": "4486",
    "type": "medium_airport",
    "location": "Mihail Kogălniceanu",
    "country_id": "302712",
    "country_code": "RO",
    "IATA": "TCE",
    "ICAO": "LRTC",
    "Latitude": "45.0625",
    "Longitude": "28.7143",
    "Altitude": "200",
    "EDI": null
  },
  {
    "name": "Deveselu Air Base",
    "code": "5669",
    "type": "closed",
    "location": "Deveselu",
    "country_id": "302712",
    "country_code": "RO",
    "IATA": null,
    "ICAO": null,
    "Latitude": "44.0773010254",
    "Longitude": "24.4164009094",
    "Altitude": "289",
    "EDI": null
  },
  {
    "name": "Câmpia Turzii Air Base",
    "code": "4478",
    "type": "medium_airport",
    "location": "Câmpia Turzii",
    "country_id": "302712",
    "country_code": "RO",
    "IATA": null,
    "ICAO": null,
    "Latitude": "46.50230026245117",
    "Longitude": "23.885900497436523",
    "Altitude": "1083",
    "EDI": null
  },
  {
    "name": "Brașov-Ghimbav International Airport",
    "code": "333670",
    "type": "medium_airport",
    "location": "Brașov (Ghimbav)",
    "country_id": "302712",
    "country_code": "RO",
    "IATA": "GHV",
    "ICAO": "LRBV",
    "Latitude": "45.70558",
    "Longitude": "25.522871",
    "Altitude": "1740",
    "EDI": null
  },
  {
    "name": "Joseni Airfield",
    "code": "322151",
    "type": "small_airport",
    "location": "Joseni",
    "country_id": "302712",
    "country_code": "RO",
    "IATA": null,
    "ICAO": null,
    "Latitude": "46.726362",
    "Longitude": "25.509257",
    "Altitude": "2457",
    "EDI": null
  },
  {
    "name": "Sibiu Hermann Oberth Airfield",
    "code": "554659",
    "type": "small_airport",
    "location": "Sibiu",
    "country_id": "302712",
    "country_code": "RO",
    "IATA": null,
    "ICAO": null,
    "Latitude": "45.78231",
    "Longitude": "24.09139",
    "Altitude": "1480",
    "EDI": null
  },
  {
    "name": "BM Paramotoring and Paragliding Field",
    "code": "554648",
    "type": "small_airport",
    "location": "Hârșova",
    "country_id": "302712",
    "country_code": "RO",
    "IATA": null,
    "ICAO": null,
    "Latitude": "44.70336",
    "Longitude": "27.91061",
    "Altitude": "15",
    "EDI": null
  },
  {
    "name": "Măgura Airfield",
    "code": "315901",
    "type": "small_airport",
    "location": "Cisnădie",
    "country_id": "302712",
    "country_code": "RO",
    "IATA": null,
    "ICAO": null,
    "Latitude": "45.737222",
    "Longitude": "24.165278",
    "Altitude": "1524",
    "EDI": null
  },
  {
    "name": "Ciocănești - Popasul Zburatorilor Airfield",
    "code": "346654",
    "type": "small_airport",
    "location": "Ciocănești",
    "country_id": "302712",
    "country_code": "RO",
    "IATA": null,
    "ICAO": null,
    "Latitude": "44.583121",
    "Longitude": "25.848514",
    "Altitude": "374",
    "EDI": null
  },
  {
    "name": "Ilfoveni (Aerogetic) Airfield",
    "code": "354784",
    "type": "small_airport",
    "location": "Băleni-Români",
    "country_id": "302712",
    "country_code": "RO",
    "IATA": null,
    "ICAO": null,
    "Latitude": "44.794536",
    "Longitude": "25.589261",
    "Altitude": "659",
    "EDI": null
  },
  {
    "name": "Balta Verde Airfield",
    "code": "320207",
    "type": "small_airport",
    "location": "Craiova",
    "country_id": "302712",
    "country_code": "RO",
    "IATA": null,
    "ICAO": null,
    "Latitude": "44.285839",
    "Longitude": "23.791537",
    "Altitude": null,
    "EDI": null
  },
  {
    "name": "Predeşti SkyFun Airfield",
    "code": "354771",
    "type": "small_airport",
    "location": "Predești",
    "country_id": "302712",
    "country_code": "RO",
    "IATA": null,
    "ICAO": null,
    "Latitude": "44.3743",
    "Longitude": "23.618503",
    "Altitude": "300",
    "EDI": null
  },
  {
    "name": "Mihăița Airstrip",
    "code": "354791",
    "type": "small_airport",
    "location": "Mihăița",
    "country_id": "302712",
    "country_code": "RO",
    "IATA": null,
    "ICAO": null,
    "Latitude": "44.391777",
    "Longitude": "23.671024",
    "Altitude": "285",
    "EDI": null
  },
  {
    "name": "Barza Târgu-Jiu Airfield",
    "code": "354773",
    "type": "small_airport",
    "location": "Bucureasa",
    "country_id": "302712",
    "country_code": "RO",
    "IATA": null,
    "ICAO": null,
    "Latitude": "45.003929",
    "Longitude": "23.333545",
    "Altitude": "667",
    "EDI": null
  },
  {
    "name": "Casa Teo Airstrip",
    "code": "354880",
    "type": "small_airport",
    "location": "Băicoi",
    "country_id": "302712",
    "country_code": "RO",
    "IATA": null,
    "ICAO": null,
    "Latitude": "45.02052",
    "Longitude": "25.855951",
    "Altitude": "921",
    "EDI": null
  },
  {
    "name": "Şirna Tăriceni Airfield",
    "code": "315986",
    "type": "small_airport",
    "location": "Tăriceni",
    "country_id": "302712",
    "country_code": "RO",
    "IATA": null,
    "ICAO": null,
    "Latitude": "44.783792",
    "Longitude": "25.983205",
    "Altitude": null,
    "EDI": null
  },
  {
    "name": "Bănești Airfield",
    "code": "311939",
    "type": "small_airport",
    "location": "Bănești",
    "country_id": "302712",
    "country_code": "RO",
    "IATA": null,
    "ICAO": null,
    "Latitude": "45.068378",
    "Longitude": "25.806155",
    "Altitude": "1207",
    "EDI": null
  },
  {
    "name": "Ploiești-Strejnicu Airfield",
    "code": "309711",
    "type": "small_airport",
    "location": "Strejnicu",
    "country_id": "302712",
    "country_code": "RO",
    "IATA": null,
    "ICAO": null,
    "Latitude": "44.92367",
    "Longitude": "25.963418",
    "Altitude": "240",
    "EDI": null
  },
  {
    "name": "Comana Airstrip",
    "code": "320903",
    "type": "small_airport",
    "location": "Comana",
    "country_id": "302712",
    "country_code": "RO",
    "IATA": null,
    "ICAO": null,
    "Latitude": "44.200367",
    "Longitude": "26.139661",
    "Altitude": "168",
    "EDI": null
  },
  {
    "name": "Fly Friends Airfield",
    "code": "354785",
    "type": "small_airport",
    "location": "Vânătorii Mici",
    "country_id": "302712",
    "country_code": "RO",
    "IATA": null,
    "ICAO": null,
    "Latitude": "44.491637",
    "Longitude": "25.584884",
    "Altitude": "415",
    "EDI": null
  },
  {
    "name": "Rona de Sus Airfield",
    "code": "554664",
    "type": "small_airport",
    "location": "Rona de Sus",
    "country_id": "302712",
    "country_code": "RO",
    "IATA": null,
    "ICAO": null,
    "Latitude": "47.91088",
    "Longitude": "24.01891",
    "Altitude": "1020",
    "EDI": null
  },
  {
    "name": "Iaşi Sud",
    "code": "354838",
    "type": "small_airport",
    "location": null,
    "country_id": "302712",
    "country_code": "RO",
    "IATA": null,
    "ICAO": null,
    "Latitude": "47.15778",
    "Longitude": "27.6375",
    "Altitude": "200",
    "EDI": null
  },
  {
    "name": "Drobeta-Turnu Severin Airfield",
    "code": "322374",
    "type": "small_airport",
    "location": "Ștefan Odobleja",
    "country_id": "302712",
    "country_code": "RO",
    "IATA": null,
    "ICAO": null,
    "Latitude": "44.580503",
    "Longitude": "22.847785",
    "Altitude": null,
    "EDI": null
  },
  {
    "name": "Copalnic-Manastur Airfield",
    "code": "354906",
    "type": "small_airport",
    "location": "Copalnic-Mănăștur",
    "country_id": "302712",
    "country_code": "RO",
    "IATA": null,
    "ICAO": null,
    "Latitude": "47.509161",
    "Longitude": "23.68935",
    "Altitude": "815",
    "EDI": null
  },
  {
    "name": "Săcălășeni Airfield",
    "code": "515319",
    "type": "small_airport",
    "location": "Coltău",
    "country_id": "302712",
    "country_code": "RO",
    "IATA": null,
    "ICAO": null,
    "Latitude": "47.578155",
    "Longitude": "23.53415",
    "Altitude": "627",
    "EDI": null
  },
  {
    "name": "Onceşti Airfield",
    "code": "554663",
    "type": "closed",
    "location": "Onceşti",
    "country_id": "302712",
    "country_code": "RO",
    "IATA": null,
    "ICAO": null,
    "Latitude": "47.85679",
    "Longitude": "23.95538",
    "Altitude": "1239",
    "EDI": null
  },
  {
    "name": "Dumbrava Roșie Airfield",
    "code": "354876",
    "type": "small_airport",
    "location": null,
    "country_id": "302712",
    "country_code": "RO",
    "IATA": null,
    "ICAO": null,
    "Latitude": "46.898853",
    "Longitude": "26.434307",
    "Altitude": "992",
    "EDI": null
  },
  {
    "name": "Zanesti Airfield",
    "code": "354770",
    "type": "small_airport",
    "location": "Roznov",
    "country_id": "302712",
    "country_code": "RO",
    "IATA": null,
    "ICAO": null,
    "Latitude": "46.84667",
    "Longitude": "26.55611",
    "Altitude": "947",
    "EDI": null
  },
  {
    "name": "Aerodromul Girov",
    "code": "346802",
    "type": "small_airport",
    "location": null,
    "country_id": "302712",
    "country_code": "RO",
    "IATA": null,
    "ICAO": null,
    "Latitude": "46.961818",
    "Longitude": "26.485076",
    "Altitude": null,
    "EDI": null
  },
  {
    "name": "Alexeni Airfield",
    "code": "320214",
    "type": "small_airport",
    "location": "Alexeni",
    "country_id": "302712",
    "country_code": "RO",
    "IATA": null,
    "ICAO": null,
    "Latitude": "44.709778",
    "Longitude": "26.721411",
    "Altitude": null,
    "EDI": null
  },
  {
    "name": "Ghindari Airfield",
    "code": "325342",
    "type": "small_airport",
    "location": "Ghindari",
    "country_id": "302712",
    "country_code": "RO",
    "IATA": null,
    "ICAO": null,
    "Latitude": "46.519304",
    "Longitude": "24.945037",
    "Altitude": null,
    "EDI": null
  }
]