[
  {
    "name": "Belgrade Nikola Tesla Airport",
    "code": "4610",
    "type": "large_airport",
    "location": "Belgrade",
    "country_id": "302713",
    "country_code": "RS",
    "IATA": "BEG",
    "ICAO": "LYBE",
    "Latitude": "44.818401",
    "Longitude": "20.309099",
    "Altitude": "335",
    "EDI": null
  },
  {
    "name": "Niš Constantine the Great Airport",
    "code": "4612",
    "type": "medium_airport",
    "location": "Niš",
    "country_id": "302713",
    "country_code": "RS",
    "IATA": "INI",
    "ICAO": "LYNI",
    "Latitude": "43.337009",
    "Longitude": "21.85451",
    "Altitude": "648",
    "EDI": null
  },
  {
    "name": "Batajnica Air Base",
    "code": "4611",
    "type": "medium_airport",
    "location": "Zemun",
    "country_id": "302713",
    "country_code": "RS",
    "IATA": "BJY",
    "ICAO": "LYBT",
    "Latitude": "44.935299",
    "Longitude": "20.2575",
    "Altitude": "265",
    "EDI": null
  },
  {
    "name": "Ponikve Airport",
    "code": "1649",
    "type": "medium_airport",
    "location": "Stapari",
    "country_id": "302713",
    "country_code": "RS",
    "IATA": "UZC",
    "ICAO": "LYUZ",
    "Latitude": "43.898899",
    "Longitude": "19.697701",
    "Altitude": "2966",
    "EDI": null
  },
  {
    "name": "Kovin Airstrip",
    "code": "1648",
    "type": "small_airport",
    "location": "Kovin",
    "country_id": "302713",
    "country_code": "RS",
    "IATA": null,
    "ICAO": null,
    "Latitude": "44.7743",
    "Longitude": "20.9613",
    "Altitude": "280",
    "EDI": null
  },
  {
    "name": "Vršac Airfield",
    "code": "4616",
    "type": "small_airport",
    "location": "Vršac",
    "country_id": "302713",
    "country_code": "RS",
    "IATA": null,
    "ICAO": null,
    "Latitude": "45.147736",
    "Longitude": "21.309374",
    "Altitude": "276",
    "EDI": null
  },
  {
    "name": "Bor Airport",
    "code": "1650",
    "type": "small_airport",
    "location": "Bor",
    "country_id": "302713",
    "country_code": "RS",
    "IATA": null,
    "ICAO": null,
    "Latitude": "44.0182",
    "Longitude": "22.1371",
    "Altitude": "1266",
    "EDI": null
  },
  {
    "name": "Morava Airport",
    "code": "31872",
    "type": "medium_airport",
    "location": "Kraljevo",
    "country_id": "302713",
    "country_code": "RS",
    "IATA": "KVO",
    "ICAO": "LYKV",
    "Latitude": "43.817519",
    "Longitude": "20.586662",
    "Altitude": "686",
    "EDI": null
  },
  {
    "name": "Bogatić Airfield",
    "code": "320358",
    "type": "small_airport",
    "location": "Bogatić",
    "country_id": "302713",
    "country_code": "RS",
    "IATA": null,
    "ICAO": null,
    "Latitude": "44.826667",
    "Longitude": "19.499722",
    "Altitude": "276",
    "EDI": null
  },
  {
    "name": "Kostolac Airfield",
    "code": "340590",
    "type": "small_airport",
    "location": "Kostolac",
    "country_id": "302713",
    "country_code": "RS",
    "IATA": null,
    "ICAO": null,
    "Latitude": "44.734863",
    "Longitude": "21.161664",
    "Altitude": "240",
    "EDI": null
  },
  {
    "name": "Valjevo Divci Airfield",
    "code": "308320",
    "type": "small_airport",
    "location": "Divci, Valjevo",
    "country_id": "302713",
    "country_code": "RS",
    "IATA": null,
    "ICAO": null,
    "Latitude": "44.29793",
    "Longitude": "20.021567",
    "Altitude": "469",
    "EDI": null
  },
  {
    "name": "Smederevska Palanka / Rudine Airfield",
    "code": "46639",
    "type": "small_airport",
    "location": "Smederevska Palanka",
    "country_id": "302713",
    "country_code": "RS",
    "IATA": null,
    "ICAO": null,
    "Latitude": "44.351474",
    "Longitude": "20.959996",
    "Altitude": "344",
    "EDI": null
  },
  {
    "name": "Smederevo Airfield",
    "code": "315691",
    "type": "small_airport",
    "location": "Smederevo",
    "country_id": "302713",
    "country_code": "RS",
    "IATA": null,
    "ICAO": null,
    "Latitude": "44.6439",
    "Longitude": "20.9623",
    "Altitude": "223",
    "EDI": null
  },
  {
    "name": "Srebrno Jezero Airfield",
    "code": "575107",
    "type": "small_airport",
    "location": "Veliko Gradište",
    "country_id": "302713",
    "country_code": "RS",
    "IATA": null,
    "ICAO": null,
    "Latitude": "44.75617",
    "Longitude": "21.48046",
    "Altitude": "213",
    "EDI": null
  },
  {
    "name": "Paracín / Davidovac Airfield",
    "code": "320360",
    "type": "small_airport",
    "location": "Paraćin",
    "country_id": "302713",
    "country_code": "RS",
    "IATA": null,
    "ICAO": null,
    "Latitude": "43.866389",
    "Longitude": "21.486944",
    "Altitude": "144",
    "EDI": null
  },
  {
    "name": "Jagodina-Barutana Airfield",
    "code": "333323",
    "type": "small_airport",
    "location": "Jagodina",
    "country_id": "302713",
    "country_code": "RS",
    "IATA": null,
    "ICAO": null,
    "Latitude": "43.976613",
    "Longitude": "21.229756",
    "Altitude": null,
    "EDI": null
  },
  {
    "name": "Kragujevac / Mind Airfield",
    "code": "516459",
    "type": "small_airport",
    "location": "Lužnice",
    "country_id": "302713",
    "country_code": "RS",
    "IATA": null,
    "ICAO": null,
    "Latitude": "44.1285",
    "Longitude": "20.85362",
    "Altitude": "988",
    "EDI": null
  },
  {
    "name": "Kragujevac Ravni Gaj Airfield",
    "code": "555261",
    "type": "small_airport",
    "location": "Knic",
    "country_id": "302713",
    "country_code": "RS",
    "IATA": null,
    "ICAO": null,
    "Latitude": "43.92256",
    "Longitude": "20.76442",
    "Altitude": "876",
    "EDI": null
  },
  {
    "name": "Ćuprija Airstrip",
    "code": "516460",
    "type": "small_airport",
    "location": "Ćuprija",
    "country_id": "302713",
    "country_code": "RS",
    "IATA": null,
    "ICAO": null,
    "Latitude": "43.94069",
    "Longitude": "21.40903",
    "Altitude": "512",
    "EDI": null
  },
  {
    "name": "Zlatibor Sport Airstrip (U.C.)",
    "code": "340592",
    "type": "small_airport",
    "location": "Zlatibor",
    "country_id": "302713",
    "country_code": "RS",
    "IATA": null,
    "ICAO": null,
    "Latitude": "43.724368",
    "Longitude": "19.678661",
    "Altitude": null,
    "EDI": null
  },
  {
    "name": "Čačak-Preljina Airfield",
    "code": "309974",
    "type": "small_airport",
    "location": "Čačak",
    "country_id": "302713",
    "country_code": "RS",
    "IATA": null,
    "ICAO": null,
    "Latitude": "43.8981",
    "Longitude": "20.435",
    "Altitude": "776",
    "EDI": null
  },
  {
    "name": "Pranjani / Galovica Polje Airfield",
    "code": "506391",
    "type": "small_airport",
    "location": "Pranjani",
    "country_id": "302713",
    "country_code": "RS",
    "IATA": null,
    "ICAO": null,
    "Latitude": "44.03592",
    "Longitude": "20.17827",
    "Altitude": "1778",
    "EDI": null
  },
  {
    "name": "Kraljevo Brege Airfield",
    "code": "319554",
    "type": "small_airport",
    "location": "Kraljevo",
    "country_id": "302713",
    "country_code": "RS",
    "IATA": null,
    "ICAO": null,
    "Latitude": "43.7318",
    "Longitude": "20.717969",
    "Altitude": "660",
    "EDI": null
  },
  {
    "name": "Trstenik Airfield",
    "code": "302289",
    "type": "small_airport",
    "location": "Trstenik",
    "country_id": "302713",
    "country_code": "RS",
    "IATA": null,
    "ICAO": null,
    "Latitude": "43.614189",
    "Longitude": "21.030217",
    "Altitude": "534",
    "EDI": null
  },
  {
    "name": "Kozhirsko Polje Sport Airport",
    "code": "315698",
    "type": "closed",
    "location": "Kruševac",
    "country_id": "302713",
    "country_code": "RS",
    "IATA": null,
    "ICAO": null,
    "Latitude": "43.563455",
    "Longitude": "21.33626",
    "Altitude": null,
    "EDI": null
  },
  {
    "name": "Rosulje Airfield",
    "code": "505979",
    "type": "small_airport",
    "location": "Kruševac",
    "country_id": "302713",
    "country_code": "RS",
    "IATA": null,
    "ICAO": null,
    "Latitude": "43.561362",
    "Longitude": "21.382688",
    "Altitude": "767",
    "EDI": null
  },
  {
    "name": "Bojnik Air Base",
    "code": "34927",
    "type": "closed",
    "location": "Kosančić",
    "country_id": "302713",
    "country_code": "RS",
    "IATA": null,
    "ICAO": null,
    "Latitude": "42.997299",
    "Longitude": "21.721901",
    "Altitude": "929",
    "EDI": null
  },
  {
    "name": "Leskovac / Mira Sport Airfield",
    "code": "320389",
    "type": "small_airport",
    "location": "Leskovac",
    "country_id": "302713",
    "country_code": "RS",
    "IATA": null,
    "ICAO": null,
    "Latitude": "43.019665",
    "Longitude": "21.931963",
    "Altitude": "738",
    "EDI": null
  },
  {
    "name": "Vranje Airfield",
    "code": "514692",
    "type": "closed",
    "location": "Vranje",
    "country_id": "302713",
    "country_code": "RS",
    "IATA": null,
    "ICAO": null,
    "Latitude": "42.55331",
    "Longitude": "21.86699",
    "Altitude": "1886",
    "EDI": null
  },
  {
    "name": "Vojka Airfield",
    "code": "325762",
    "type": "small_airport",
    "location": "Stara Pazova",
    "country_id": "302713",
    "country_code": "RS",
    "IATA": null,
    "ICAO": null,
    "Latitude": "44.933532",
    "Longitude": "20.174569",
    "Altitude": null,
    "EDI": null
  },
  {
    "name": "Zemun Polje 13 May Airfield",
    "code": "301357",
    "type": "small_airport",
    "location": "Zemun Polje",
    "country_id": "302713",
    "country_code": "RS",
    "IATA": null,
    "ICAO": null,
    "Latitude": "44.876444",
    "Longitude": "20.305917",
    "Altitude": "257",
    "EDI": null
  },
  {
    "name": "Lisičji Jarak Airfield",
    "code": "301358",
    "type": "small_airport",
    "location": "Palilula",
    "country_id": "302713",
    "country_code": "RS",
    "IATA": null,
    "ICAO": null,
    "Latitude": "44.939858",
    "Longitude": "20.445828",
    "Altitude": "233",
    "EDI": null
  },
  {
    "name": "Banjički Vis Military Heliport",
    "code": "316358",
    "type": "heliport",
    "location": "Beograd (Belgrade)",
    "country_id": "302713",
    "country_code": "RS",
    "IATA": null,
    "ICAO": null,
    "Latitude": "44.761512",
    "Longitude": "20.472175",
    "Altitude": "584",
    "EDI": null
  },
  {
    "name": "Surčin Airstrip",
    "code": "321141",
    "type": "small_airport",
    "location": "Surčin",
    "country_id": "302713",
    "country_code": "RS",
    "IATA": null,
    "ICAO": null,
    "Latitude": "44.768889",
    "Longitude": "20.304722",
    "Altitude": "240",
    "EDI": null
  },
  {
    "name": "Progar Airstrip",
    "code": "330900",
    "type": "small_airport",
    "location": "Surčin",
    "country_id": "302713",
    "country_code": "RS",
    "IATA": null,
    "ICAO": null,
    "Latitude": "44.722182",
    "Longitude": "20.176448",
    "Altitude": null,
    "EDI": null
  },
  {
    "name": "Zabrežje Airfield",
    "code": "539242",
    "type": "small_airport",
    "location": "Obrenovac",
    "country_id": "302713",
    "country_code": "RS",
    "IATA": null,
    "ICAO": null,
    "Latitude": "44.68874",
    "Longitude": "20.20939",
    "Altitude": "240",
    "EDI": null
  },
  {
    "name": "Subotica / Bikovo Sport Aerodrome",
    "code": "308323",
    "type": "small_airport",
    "location": "Bikovo",
    "country_id": "302713",
    "country_code": "RS",
    "IATA": null,
    "ICAO": null,
    "Latitude": "46.022837",
    "Longitude": "19.706454",
    "Altitude": "340",
    "EDI": null
  },
  {
    "name": "Ečka Airfield",
    "code": "302301",
    "type": "small_airport",
    "location": "Zrenjanin",
    "country_id": "302713",
    "country_code": "RS",
    "IATA": null,
    "ICAO": null,
    "Latitude": "45.339756",
    "Longitude": "20.454078",
    "Altitude": "246",
    "EDI": null
  },
  {
    "name": "Torda Airfield",
    "code": "539278",
    "type": "small_airport",
    "location": "Torda",
    "country_id": "302713",
    "country_code": "RS",
    "IATA": null,
    "ICAO": null,
    "Latitude": "45.57743",
    "Longitude": "20.47397",
    "Altitude": "253",
    "EDI": null
  },
  {
    "name": "Kikinda Airfield",
    "code": "301369",
    "type": "small_airport",
    "location": "Kikinda",
    "country_id": "302713",
    "country_code": "RS",
    "IATA": null,
    "ICAO": null,
    "Latitude": "45.768122",
    "Longitude": "20.417261",
    "Altitude": "266",
    "EDI": null
  },
  {
    "name": "Zimonić  (Ilonafalu) Glider Field",
    "code": "429733",
    "type": "small_airport",
    "location": "Vojvoda Zimonić (Ilonafalu)",
    "country_id": "302713",
    "country_code": "RS",
    "IATA": null,
    "ICAO": null,
    "Latitude": "46.04404",
    "Longitude": "19.98972",
    "Altitude": null,
    "EDI": null
  },
  {
    "name": "Bela Crkva Airfield",
    "code": "34926",
    "type": "small_airport",
    "location": "Bela Crkva",
    "country_id": "302713",
    "country_code": "RS",
    "IATA": null,
    "ICAO": null,
    "Latitude": "44.925166",
    "Longitude": "21.370155",
    "Altitude": "246",
    "EDI": null
  },
  {
    "name": "Golubinci Airstrip",
    "code": "347109",
    "type": "small_airport",
    "location": "Golubinci",
    "country_id": "302713",
    "country_code": "RS",
    "IATA": null,
    "ICAO": null,
    "Latitude": "44.970289",
    "Longitude": "20.060234",
    "Altitude": null,
    "EDI": null
  },
  {
    "name": "Sremska Mitrovica / Veliki Radinci Airfield",
    "code": "308327",
    "type": "small_airport",
    "location": "Veliki Radinci",
    "country_id": "302713",
    "country_code": "RS",
    "IATA": null,
    "ICAO": null,
    "Latitude": "45.037414",
    "Longitude": "19.660184",
    "Altitude": "310",
    "EDI": null
  },
  {
    "name": "Bački Jarak Airfield",
    "code": "347281",
    "type": "small_airport",
    "location": "Bački Jarak",
    "country_id": "302713",
    "country_code": "RS",
    "IATA": null,
    "ICAO": null,
    "Latitude": "45.365223",
    "Longitude": "19.887006",
    "Altitude": null,
    "EDI": null
  },
  {
    "name": "Titel Airstrip",
    "code": "321142",
    "type": "small_airport",
    "location": "Titel",
    "country_id": "302713",
    "country_code": "RS",
    "IATA": null,
    "ICAO": null,
    "Latitude": "45.1975",
    "Longitude": "20.278889",
    "Altitude": "240",
    "EDI": null
  },
  {
    "name": "Novi Sad / Čenej Airfield",
    "code": "32190",
    "type": "small_airport",
    "location": "Čenej",
    "country_id": "302713",
    "country_code": "RS",
    "IATA": null,
    "ICAO": null,
    "Latitude": "45.38531",
    "Longitude": "19.833326",
    "Altitude": "266",
    "EDI": null
  },
  {
    "name": "Bački Monoštor Airfield",
    "code": "329651",
    "type": "small_airport",
    "location": "Sombor",
    "country_id": "302713",
    "country_code": "RS",
    "IATA": null,
    "ICAO": null,
    "Latitude": "45.785034",
    "Longitude": "19.019175",
    "Altitude": "260",
    "EDI": null
  },
  {
    "name": "Pančevo Airfield",
    "code": "313480",
    "type": "small_airport",
    "location": "Pančevo",
    "country_id": "302713",
    "country_code": "RS",
    "IATA": null,
    "ICAO": null,
    "Latitude": "44.9",
    "Longitude": "20.641002",
    "Altitude": "245",
    "EDI": null
  },
  {
    "name": "Vršački Ritovi Airstrip",
    "code": "321795",
    "type": "small_airport",
    "location": "Vršački Ritovi",
    "country_id": "302713",
    "country_code": "RS",
    "IATA": null,
    "ICAO": null,
    "Latitude": "45.159444",
    "Longitude": "21.185",
    "Altitude": "246",
    "EDI": null
  }
]