[
  {
    "name": "Ljubljana Jože Pučnik Airport",
    "code": "4386",
    "type": "large_airport",
    "location": "Zgornji Brnik",
    "country_id": "302716",
    "country_code": "SI",
    "IATA": "LJU",
    "ICAO": "LJLJ",
    "Latitude": "46.223701",
    "Longitude": "14.4576",
    "Altitude": "1273",
    "EDI": null
  },
  {
    "name": "Portorož Airport",
    "code": "4388",
    "type": "medium_airport",
    "location": "Sečovlje",
    "country_id": "302716",
    "country_code": "SI",
    "IATA": "POW",
    "ICAO": "LJPZ",
    "Latitude": "45.47201",
    "Longitude": "13.615951",
    "Altitude": "7",
    "EDI": null
  },
  {
    "name": "Maribor Edvard Rusjan Airport",
    "code": "4387",
    "type": "medium_airport",
    "location": "Orehova Vas",
    "country_id": "302716",
    "country_code": "SI",
    "IATA": "MBX",
    "ICAO": "LJMB",
    "Latitude": "46.4799",
    "Longitude": "15.6861",
    "Altitude": "876",
    "EDI": null
  },
  {
    "name": "Cerklje ob Krki Air Base",
    "code": "4385",
    "type": "medium_airport",
    "location": "Cerklje ob Krki",
    "country_id": "302716",
    "country_code": "SI",
    "IATA": null,
    "ICAO": null,
    "Latitude": "45.900002",
    "Longitude": "15.5302",
    "Altitude": "510",
    "EDI": null
  },
  {
    "name": "Slovenj Gradec Airfield",
    "code": "4389",
    "type": "small_airport",
    "location": "Šmartno pri Slovenj Gradcu",
    "country_id": "302716",
    "country_code": "SI",
    "IATA": null,
    "ICAO": null,
    "Latitude": "46.472",
    "Longitude": "15.117",
    "Altitude": "1645",
    "EDI": null
  },
  {
    "name": "Slovenske Konjice Airfield",
    "code": "315984",
    "type": "small_airport",
    "location": "Loče",
    "country_id": "302716",
    "country_code": "SI",
    "IATA": null,
    "ICAO": null,
    "Latitude": "46.31033",
    "Longitude": "15.492024",
    "Altitude": null,
    "EDI": null
  },
  {
    "name": "Metlika Prilozje Airfield",
    "code": "44970",
    "type": "small_airport",
    "location": "Boginja Vas",
    "country_id": "302716",
    "country_code": "SI",
    "IATA": null,
    "ICAO": null,
    "Latitude": "45.58896",
    "Longitude": "15.2597",
    "Altitude": null,
    "EDI": null
  },
  {
    "name": "Marič Airfield",
    "code": "44910",
    "type": "small_airport",
    "location": "Martjanci",
    "country_id": "302716",
    "country_code": "SI",
    "IATA": null,
    "ICAO": null,
    "Latitude": "46.682156",
    "Longitude": "16.203745",
    "Altitude": null,
    "EDI": null
  },
  {
    "name": "Murska Sobota Airfield",
    "code": "30174",
    "type": "small_airport",
    "location": "Murska Sobota",
    "country_id": "302716",
    "country_code": "SI",
    "IATA": null,
    "ICAO": null,
    "Latitude": "46.629398",
    "Longitude": "16.174999",
    "Altitude": "600",
    "EDI": null
  },
  {
    "name": "Novo Mesto Airfield",
    "code": "44771",
    "type": "small_airport",
    "location": "Novo Mesto",
    "country_id": "302716",
    "country_code": "SI",
    "IATA": null,
    "ICAO": null,
    "Latitude": "45.801743",
    "Longitude": "15.104544",
    "Altitude": "572",
    "EDI": null
  },
  {
    "name": "Imeno Field",
    "code": "309205",
    "type": "small_airport",
    "location": "Imeno",
    "country_id": "302716",
    "country_code": "SI",
    "IATA": null,
    "ICAO": null,
    "Latitude": "46.12669",
    "Longitude": "15.603708",
    "Altitude": null,
    "EDI": null
  },
  {
    "name": "Postojna Airfield",
    "code": "44903",
    "type": "small_airport",
    "location": "Postojna",
    "country_id": "302716",
    "country_code": "SI",
    "IATA": null,
    "ICAO": null,
    "Latitude": "45.752201",
    "Longitude": "14.1947",
    "Altitude": null,
    "EDI": null
  },
  {
    "name": "Radenci Airfield",
    "code": "312421",
    "type": "small_airport",
    "location": "Radenci",
    "country_id": "302716",
    "country_code": "SI",
    "IATA": null,
    "ICAO": null,
    "Latitude": "46.628605",
    "Longitude": "16.046244",
    "Altitude": "712",
    "EDI": null
  },
  {
    "name": "Lesce Airfield",
    "code": "30071",
    "type": "small_airport",
    "location": "Lesce",
    "country_id": "302716",
    "country_code": "SI",
    "IATA": null,
    "ICAO": null,
    "Latitude": "46.357201",
    "Longitude": "14.1739",
    "Altitude": "1654",
    "EDI": null
  },
  {
    "name": "Andoljšek - Ribnica Ultralight Field",
    "code": "312417",
    "type": "small_airport",
    "location": "Ribnica",
    "country_id": "302716",
    "country_code": "SI",
    "IATA": null,
    "ICAO": null,
    "Latitude": "45.743935",
    "Longitude": "14.713",
    "Altitude": "1637",
    "EDI": null
  },
  {
    "name": "Zgornja Kostrivnica ULM",
    "code": "313059",
    "type": "small_airport",
    "location": "Zgornja Kostrivnica",
    "country_id": "302716",
    "country_code": "SI",
    "IATA": null,
    "ICAO": null,
    "Latitude": "46.258411",
    "Longitude": "15.584676",
    "Altitude": "485",
    "EDI": null
  },
  {
    "name": "Bovec Airfield",
    "code": "29721",
    "type": "small_airport",
    "location": "Bovec",
    "country_id": "302716",
    "country_code": "SI",
    "IATA": null,
    "ICAO": null,
    "Latitude": "46.329017",
    "Longitude": "13.550231",
    "Altitude": "1417",
    "EDI": null
  },
  {
    "name": "Šoštanj Airfield",
    "code": "30523",
    "type": "small_airport",
    "location": "Topolšica",
    "country_id": "302716",
    "country_code": "SI",
    "IATA": null,
    "ICAO": null,
    "Latitude": "46.397499",
    "Longitude": "15.0453",
    "Altitude": "1283",
    "EDI": null
  },
  {
    "name": "Trebnje Airfield",
    "code": "352431",
    "type": "small_airport",
    "location": "Trebnje",
    "country_id": "302716",
    "country_code": "SI",
    "IATA": null,
    "ICAO": null,
    "Latitude": "45.9122",
    "Longitude": "15.00256",
    "Altitude": null,
    "EDI": null
  },
  {
    "name": "Zagorje ob Savi Airfield",
    "code": "319832",
    "type": "small_airport",
    "location": "Zagorje ob Savi",
    "country_id": "302716",
    "country_code": "SI",
    "IATA": null,
    "ICAO": null,
    "Latitude": "46.142412",
    "Longitude": "14.998541",
    "Altitude": null,
    "EDI": null
  },
  {
    "name": "Cerkvenjak-Čagona Airfield",
    "code": "44979",
    "type": "small_airport",
    "location": "Čagona",
    "country_id": "302716",
    "country_code": "SI",
    "IATA": null,
    "ICAO": null,
    "Latitude": "46.547725",
    "Longitude": "15.915213",
    "Altitude": "751",
    "EDI": null
  },
  {
    "name": "Kaplja Vas ULM",
    "code": "312415",
    "type": "small_airport",
    "location": "Kaplja Vas",
    "country_id": "302716",
    "country_code": "SI",
    "IATA": null,
    "ICAO": null,
    "Latitude": "46.242379",
    "Longitude": "15.07335",
    "Altitude": "908",
    "EDI": null
  },
  {
    "name": "Krapje Veržej Airfield",
    "code": "44909",
    "type": "small_airport",
    "location": "Veržej",
    "country_id": "302716",
    "country_code": "SI",
    "IATA": null,
    "ICAO": null,
    "Latitude": "46.572685",
    "Longitude": "16.190973",
    "Altitude": null,
    "EDI": null
  },
  {
    "name": "Prekopa Airstrip",
    "code": "346855",
    "type": "small_airport",
    "location": "Prekopa",
    "country_id": "302716",
    "country_code": "SI",
    "IATA": null,
    "ICAO": null,
    "Latitude": "46.25017",
    "Longitude": "14.99706",
    "Altitude": null,
    "EDI": null
  },
  {
    "name": "Pobrežje Airfield",
    "code": "312390",
    "type": "small_airport",
    "location": "Zgornje Pobrežje",
    "country_id": "302716",
    "country_code": "SI",
    "IATA": null,
    "ICAO": null,
    "Latitude": "46.304296",
    "Longitude": "14.904525",
    "Altitude": "1220",
    "EDI": null
  },
  {
    "name": "Ptuj Airfield",
    "code": "44772",
    "type": "small_airport",
    "location": "Moškanjci",
    "country_id": "302716",
    "country_code": "SI",
    "IATA": null,
    "ICAO": null,
    "Latitude": "46.42709",
    "Longitude": "15.98609",
    "Altitude": "689",
    "EDI": null
  },
  {
    "name": "Ajdovščina Airfield",
    "code": "29648",
    "type": "small_airport",
    "location": "Ajdovščina",
    "country_id": "302716",
    "country_code": "SI",
    "IATA": null,
    "ICAO": null,
    "Latitude": "45.889198",
    "Longitude": "13.8869",
    "Altitude": "381",
    "EDI": null
  },
  {
    "name": "Podpeč Airfield",
    "code": "313535",
    "type": "small_airport",
    "location": "Podpeč",
    "country_id": "302716",
    "country_code": "SI",
    "IATA": null,
    "ICAO": null,
    "Latitude": "45.973447",
    "Longitude": "14.412345",
    "Altitude": "945",
    "EDI": null
  },
  {
    "name": "Dobova Airfield",
    "code": "44904",
    "type": "small_airport",
    "location": "Mihalovec",
    "country_id": "302716",
    "country_code": "SI",
    "IATA": null,
    "ICAO": null,
    "Latitude": "45.887046",
    "Longitude": "15.650925",
    "Altitude": "463",
    "EDI": null
  },
  {
    "name": "Celje Airfield",
    "code": "29766",
    "type": "small_airport",
    "location": "Celje",
    "country_id": "302716",
    "country_code": "SI",
    "IATA": null,
    "ICAO": null,
    "Latitude": "46.245602",
    "Longitude": "15.2231",
    "Altitude": "801",
    "EDI": null
  },
  {
    "name": "Gorica pri Šmartnem Airstrip",
    "code": "313055",
    "type": "small_airport",
    "location": "Gorica pri Šmartnem",
    "country_id": "302716",
    "country_code": "SI",
    "IATA": null,
    "ICAO": null,
    "Latitude": "46.27079",
    "Longitude": "15.23875",
    "Altitude": "829",
    "EDI": null
  },
  {
    "name": "Cerknica-Marof Airfield",
    "code": "319829",
    "type": "small_airport",
    "location": "Cerknica",
    "country_id": "302716",
    "country_code": "SI",
    "IATA": null,
    "ICAO": null,
    "Latitude": "45.777647",
    "Longitude": "14.388172",
    "Altitude": null,
    "EDI": null
  },
  {
    "name": "Divača Airfield",
    "code": "44770",
    "type": "small_airport",
    "location": "Divača",
    "country_id": "302716",
    "country_code": "SI",
    "IATA": null,
    "ICAO": null,
    "Latitude": "45.682778",
    "Longitude": "14.003234",
    "Altitude": "1420",
    "EDI": null
  },
  {
    "name": "Dol pri Ljubljani Ultralight Airfield",
    "code": "320997",
    "type": "small_airport",
    "location": "Dol pri Ljubljani",
    "country_id": "302716",
    "country_code": "SI",
    "IATA": null,
    "ICAO": null,
    "Latitude": "46.089601",
    "Longitude": "14.647086",
    "Altitude": null,
    "EDI": null
  },
  {
    "name": "Libeliče Airfield",
    "code": "319831",
    "type": "small_airport",
    "location": "Libeliče",
    "country_id": "302716",
    "country_code": "SI",
    "IATA": null,
    "ICAO": null,
    "Latitude": "46.623795",
    "Longitude": "14.954946",
    "Altitude": null,
    "EDI": null
  },
  {
    "name": "Šentvid pri Stični Airfield",
    "code": "310723",
    "type": "small_airport",
    "location": "Šentvid pri Stični",
    "country_id": "302716",
    "country_code": "SI",
    "IATA": null,
    "ICAO": null,
    "Latitude": "45.944112",
    "Longitude": "14.850583",
    "Altitude": "1016",
    "EDI": null
  },
  {
    "name": "Kamnik - Dulnica Airfield",
    "code": "310722",
    "type": "small_airport",
    "location": "Kamnik",
    "country_id": "302716",
    "country_code": "SI",
    "IATA": null,
    "ICAO": null,
    "Latitude": "46.197037",
    "Longitude": "14.580982",
    "Altitude": "1145",
    "EDI": null
  },
  {
    "name": "Novi Lazi Airstrip",
    "code": "44971",
    "type": "small_airport",
    "location": "Novi Lazi",
    "country_id": "302716",
    "country_code": "SI",
    "IATA": null,
    "ICAO": null,
    "Latitude": "45.571455",
    "Longitude": "14.857163",
    "Altitude": null,
    "EDI": null
  },
  {
    "name": "Črnotiče Airfield",
    "code": "316383",
    "type": "small_airport",
    "location": "Črnotiče",
    "country_id": "302716",
    "country_code": "SI",
    "IATA": null,
    "ICAO": null,
    "Latitude": "45.557193",
    "Longitude": "13.91304",
    "Altitude": "1434",
    "EDI": null
  },
  {
    "name": "Mostje Lendava Airfield",
    "code": "44905",
    "type": "small_airport",
    "location": "Mostje",
    "country_id": "302716",
    "country_code": "SI",
    "IATA": null,
    "ICAO": null,
    "Latitude": "46.599656",
    "Longitude": "16.432071",
    "Altitude": null,
    "EDI": null
  },
  {
    "name": "Hude Ravne - Dole pri Litiji Airfield",
    "code": "319830",
    "type": "small_airport",
    "location": "Hude Ravne",
    "country_id": "302716",
    "country_code": "SI",
    "IATA": null,
    "ICAO": null,
    "Latitude": "46.008708",
    "Longitude": "15.038019",
    "Altitude": null,
    "EDI": null
  },
  {
    "name": "Sostro Private Airstrip",
    "code": "319705",
    "type": "small_airport",
    "location": "Dobrunje",
    "country_id": "302716",
    "country_code": "SI",
    "IATA": null,
    "ICAO": null,
    "Latitude": "46.04315",
    "Longitude": "14.615308",
    "Altitude": null,
    "EDI": null
  },
  {
    "name": "Maribor University Hospital Heliport",
    "code": "516513",
    "type": "heliport",
    "location": "Maribor",
    "country_id": "302716",
    "country_code": "SI",
    "IATA": null,
    "ICAO": null,
    "Latitude": "46.55117",
    "Longitude": "15.64911",
    "Altitude": "906",
    "EDI": null
  },
  {
    "name": "Izola General Hospital Heliport",
    "code": "516519",
    "type": "heliport",
    "location": "Izola",
    "country_id": "302716",
    "country_code": "SI",
    "IATA": null,
    "ICAO": null,
    "Latitude": "45.5442",
    "Longitude": "13.68867",
    "Altitude": "358",
    "EDI": null
  },
  {
    "name": "Celje General Hospital Heliport",
    "code": "516515",
    "type": "heliport",
    "location": "Celje",
    "country_id": "302716",
    "country_code": "SI",
    "IATA": null,
    "ICAO": null,
    "Latitude": "46.23415",
    "Longitude": "15.26119",
    "Altitude": null,
    "EDI": null
  },
  {
    "name": "Močna Jurkovič Airfield",
    "code": "44984",
    "type": "closed",
    "location": "Močna",
    "country_id": "302716",
    "country_code": "SI",
    "IATA": null,
    "ICAO": null,
    "Latitude": "46.567801",
    "Longitude": "15.766969",
    "Altitude": null,
    "EDI": null
  },
  {
    "name": "Ljubljana University Hospital Heliport",
    "code": "516510",
    "type": "heliport",
    "location": "Ljubljana",
    "country_id": "302716",
    "country_code": "SI",
    "IATA": null,
    "ICAO": null,
    "Latitude": "46.05512",
    "Longitude": "14.52073",
    "Altitude": null,
    "EDI": null
  }
]