[
  {
    "name": "Egal International Airport",
    "code": "3171",
    "type": "medium_airport",
    "location": "Hargeisa",
    "country_id": "302601",
    "country_code": "SO",
    "IATA": "HGA",
    "ICAO": "HCMH",
    "Latitude": "9.513207",
    "Longitude": "44.082389",
    "Altitude": "4471",
    "EDI": null
  },
  {
    "name": "Berbera Airport",
    "code": "3172",
    "type": "medium_airport",
    "location": "Berbera",
    "country_id": "302601",
    "country_code": "SO",
    "IATA": "BBO",
    "ICAO": "HCMI",
    "Latitude": "10.385035",
    "Longitude": "44.936723",
    "Altitude": "30",
    "EDI": null
  },
  {
    "name": "Kismayo Airport",
    "code": "3173",
    "type": "medium_airport",
    "location": "Kismayo",
    "country_id": "302601",
    "country_code": "SO",
    "IATA": "KMU",
    "ICAO": "HCMK",
    "Latitude": "-0.377353",
    "Longitude": "42.459202",
    "Altitude": "49",
    "EDI": null
  },
  {
    "name": "Aden Adde International Airport",
    "code": "31899",
    "type": "medium_airport",
    "location": "Mogadishu",
    "country_id": "302601",
    "country_code": "SO",
    "IATA": "MGQ",
    "ICAO": "HCMM",
    "Latitude": "2.0144400596618652",
    "Longitude": "45.3046989440918",
    "Altitude": "29",
    "EDI": null
  },
  {
    "name": "K50 International Airport",
    "code": "43788",
    "type": "medium_airport",
    "location": "Mogadishu",
    "country_id": "302601",
    "country_code": "SO",
    "IATA": null,
    "ICAO": null,
    "Latitude": "2.00528",
    "Longitude": "44.986599",
    "Altitude": "100",
    "EDI": null
  },
  {
    "name": "Alula Airport",
    "code": "30638",
    "type": "small_airport",
    "location": "Alula",
    "country_id": "302601",
    "country_code": "SO",
    "IATA": "ALU",
    "ICAO": "HCMA",
    "Latitude": "11.9582",
    "Longitude": "50.748",
    "Altitude": "6",
    "EDI": null
  },
  {
    "name": "Borama Airport",
    "code": "35166",
    "type": "small_airport",
    "location": "Borama",
    "country_id": "302601",
    "country_code": "SO",
    "IATA": "BXX",
    "ICAO": null,
    "Latitude": "9.9463",
    "Longitude": "43.1495",
    "Altitude": null,
    "EDI": null
  },
  {
    "name": "Burao Airport",
    "code": "30802",
    "type": "small_airport",
    "location": "Burao",
    "country_id": "302601",
    "country_code": "SO",
    "IATA": "BUO",
    "ICAO": "HCMV",
    "Latitude": "9.5275",
    "Longitude": "45.5549",
    "Altitude": "3400",
    "EDI": null
  },
  {
    "name": "Galcaio Airport",
    "code": "31536",
    "type": "small_airport",
    "location": "Galcaio",
    "country_id": "302601",
    "country_code": "SO",
    "IATA": "GLK",
    "ICAO": "HCMR",
    "Latitude": "6.78082990646",
    "Longitude": "47.45470047",
    "Altitude": "975",
    "EDI": null
  },
  {
    "name": "Bosaso / Bender Qassim International Airport",
    "code": "30792",
    "type": "small_airport",
    "location": "Bosaso",
    "country_id": "302601",
    "country_code": "SO",
    "IATA": "BSA",
    "ICAO": "HCMF",
    "Latitude": "11.275235",
    "Longitude": "49.139231",
    "Altitude": "3",
    "EDI": null
  },
  {
    "name": "Garowe Airport",
    "code": "319714",
    "type": "small_airport",
    "location": "Garowe",
    "country_id": "302601",
    "country_code": "SO",
    "IATA": "GGR",
    "ICAO": null,
    "Latitude": "8.457942",
    "Longitude": "48.567407",
    "Altitude": "1465",
    "EDI": null
  },
  {
    "name": "Beledweyne Airport",
    "code": "31572",
    "type": "small_airport",
    "location": "Beledweyne",
    "country_id": "302601",
    "country_code": "SO",
    "IATA": "BLW",
    "ICAO": null,
    "Latitude": "4.766976",
    "Longitude": "45.2388",
    "Altitude": "559",
    "EDI": null
  },
  {
    "name": "Hafun Old Base Airstrip",
    "code": "315332",
    "type": "small_airport",
    "location": "Hafun",
    "country_id": "302601",
    "country_code": "SO",
    "IATA": null,
    "ICAO": "HCBG",
    "Latitude": "10.4154",
    "Longitude": "51.3256",
    "Altitude": "555",
    "EDI": null
  },
  {
    "name": "Bu'aale Airfield",
    "code": "356226",
    "type": "small_airport",
    "location": "Bu'aale",
    "country_id": "302601",
    "country_code": "SO",
    "IATA": null,
    "ICAO": null,
    "Latitude": "1.26821",
    "Longitude": "42.58794",
    "Altitude": "200",
    "EDI": null
  },
  {
    "name": "Garacad Airport",
    "code": "340226",
    "type": "small_airport",
    "location": "Garacad",
    "country_id": "302601",
    "country_code": "SO",
    "IATA": null,
    "ICAO": null,
    "Latitude": "6.8773",
    "Longitude": "49.2476",
    "Altitude": null,
    "EDI": null
  },
  {
    "name": "Eil Airport",
    "code": "31571",
    "type": "small_airport",
    "location": "Eyl",
    "country_id": "302601",
    "country_code": "SO",
    "IATA": "HCM",
    "ICAO": "HCME",
    "Latitude": "8.104",
    "Longitude": "49.82",
    "Altitude": "879",
    "EDI": null
  },
  {
    "name": "Erigavo Airport",
    "code": "31018",
    "type": "small_airport",
    "location": "Erigavo",
    "country_id": "302601",
    "country_code": "SO",
    "IATA": "ERA",
    "ICAO": "HCMU",
    "Latitude": "10.642050549",
    "Longitude": "47.3879814148",
    "Altitude": "5720",
    "EDI": null
  },
  {
    "name": "Las Khorey Airport",
    "code": "340222",
    "type": "small_airport",
    "location": "Las Khorey",
    "country_id": "302601",
    "country_code": "SO",
    "IATA": "LKR",
    "ICAO": null,
    "Latitude": "11.17348",
    "Longitude": "48.21426",
    "Altitude": null,
    "EDI": null
  },
  {
    "name": "Hafun Airstrip",
    "code": "315331",
    "type": "small_airport",
    "location": "Hafun",
    "country_id": "302601",
    "country_code": "SO",
    "IATA": null,
    "ICAO": "HCBA",
    "Latitude": "10.445",
    "Longitude": "51.2466",
    "Altitude": "35",
    "EDI": null
  },
  {
    "name": "Baledogle Airfield",
    "code": "308229",
    "type": "small_airport",
    "location": "Wanlaweyn",
    "country_id": "302601",
    "country_code": "SO",
    "IATA": null,
    "ICAO": null,
    "Latitude": "2.670742",
    "Longitude": "44.792897",
    "Altitude": "297",
    "EDI": null
  },
  {
    "name": "Uadan Highway Airstrip",
    "code": "308230",
    "type": "small_airport",
    "location": "Mogadishu",
    "country_id": "302601",
    "country_code": "SO",
    "IATA": null,
    "ICAO": null,
    "Latitude": "1.972613",
    "Longitude": "45.222878",
    "Altitude": null,
    "EDI": null
  },
  {
    "name": "Dayniile Airport",
    "code": "340229",
    "type": "small_airport",
    "location": "Mogadishu",
    "country_id": "302601",
    "country_code": "SO",
    "IATA": null,
    "ICAO": null,
    "Latitude": "2.122039",
    "Longitude": "45.268856",
    "Altitude": null,
    "EDI": null
  },
  {
    "name": "Baraawe Airport",
    "code": "340231",
    "type": "small_airport",
    "location": "Baraawe",
    "country_id": "302601",
    "country_code": "SO",
    "IATA": null,
    "ICAO": null,
    "Latitude": "1.09438",
    "Longitude": "43.99532",
    "Altitude": null,
    "EDI": null
  },
  {
    "name": "Gardo Airport",
    "code": "31552",
    "type": "small_airport",
    "location": "Gardo",
    "country_id": "302601",
    "country_code": "SO",
    "IATA": "GSR",
    "ICAO": "HCMG",
    "Latitude": "9.545975",
    "Longitude": "49.119148",
    "Altitude": "2632",
    "EDI": null
  },
  {
    "name": "Candala Airport",
    "code": "30865",
    "type": "small_airport",
    "location": "Candala",
    "country_id": "302601",
    "country_code": "SO",
    "IATA": "CXN",
    "ICAO": "HCMC",
    "Latitude": "11.495627",
    "Longitude": "49.909816",
    "Altitude": "30",
    "EDI": null
  },
  {
    "name": "Iskushuban Airport",
    "code": "30837",
    "type": "small_airport",
    "location": "Iskushuban",
    "country_id": "302601",
    "country_code": "SO",
    "IATA": "CMS",
    "ICAO": "HCMS",
    "Latitude": "10.313889",
    "Longitude": "50.205556",
    "Altitude": "1121",
    "EDI": null
  },
  {
    "name": "Lugh Ganane Airport",
    "code": "313906",
    "type": "small_airport",
    "location": "Luuq",
    "country_id": "302601",
    "country_code": "SO",
    "IATA": "LGX",
    "ICAO": "HCMJ",
    "Latitude": "3.8124",
    "Longitude": "42.5459",
    "Altitude": "507",
    "EDI": null
  },
  {
    "name": "Baidoa Airport",
    "code": "30711",
    "type": "small_airport",
    "location": "Baidoa",
    "country_id": "302601",
    "country_code": "SO",
    "IATA": "BIB",
    "ICAO": "HCMB",
    "Latitude": "3.10192",
    "Longitude": "43.627137",
    "Altitude": "1820",
    "EDI": null
  },
  {
    "name": "Hobyo Airport",
    "code": "30836",
    "type": "small_airport",
    "location": "Hobyo",
    "country_id": "302601",
    "country_code": "SO",
    "IATA": "CMO",
    "ICAO": "HCMO",
    "Latitude": "5.358003",
    "Longitude": "48.515281",
    "Altitude": "65",
    "EDI": null
  },
  {
    "name": "Adado Airport",
    "code": "324756",
    "type": "small_airport",
    "location": "Adado",
    "country_id": "302601",
    "country_code": "SO",
    "IATA": "AAD",
    "ICAO": null,
    "Latitude": "6.095802",
    "Longitude": "46.6375",
    "Altitude": "1001",
    "EDI": null
  },
  {
    "name": "Guriel Airport",
    "code": "525783",
    "type": "small_airport",
    "location": "Guriel",
    "country_id": "302601",
    "country_code": "SO",
    "IATA": "GUO",
    "ICAO": null,
    "Latitude": "5.317412",
    "Longitude": "45.985308",
    "Altitude": null,
    "EDI": null
  },
  {
    "name": "Dusomareb Airport",
    "code": "526471",
    "type": "small_airport",
    "location": null,
    "country_id": "302601",
    "country_code": "SO",
    "IATA": null,
    "ICAO": null,
    "Latitude": "5.472",
    "Longitude": "46.359833",
    "Altitude": "840",
    "EDI": null
  },
  {
    "name": "Baardheere Airport",
    "code": "302296",
    "type": "small_airport",
    "location": "Baardheere",
    "country_id": "302601",
    "country_code": "SO",
    "IATA": "BSY",
    "ICAO": "HCMD",
    "Latitude": "2.330195",
    "Longitude": "42.311802",
    "Altitude": "396",
    "EDI": null
  },
  {
    "name": "Bandarbeyla Airport",
    "code": "340225",
    "type": "small_airport",
    "location": "Bandarbeyla",
    "country_id": "302601",
    "country_code": "SO",
    "IATA": null,
    "ICAO": null,
    "Latitude": "9.4603",
    "Longitude": "50.7416",
    "Altitude": null,
    "EDI": null
  },
  {
    "name": "Garbaharey Airport",
    "code": "319712",
    "type": "small_airport",
    "location": "Garbaharey",
    "country_id": "302601",
    "country_code": "SO",
    "IATA": "GBM",
    "ICAO": null,
    "Latitude": "3.32294",
    "Longitude": "42.21309",
    "Altitude": "755",
    "EDI": null
  },
  {
    "name": "Buurdhuubo Airstrip",
    "code": "329639",
    "type": "small_airport",
    "location": "Buurdhuubo",
    "country_id": "302601",
    "country_code": "SO",
    "IATA": null,
    "ICAO": null,
    "Latitude": "3.157458",
    "Longitude": "42.525189",
    "Altitude": null,
    "EDI": null
  },
  {
    "name": "Doolow Airport",
    "code": "356227",
    "type": "small_airport",
    "location": "Doolow",
    "country_id": "302601",
    "country_code": "SO",
    "IATA": null,
    "ICAO": null,
    "Latitude": "4.1493",
    "Longitude": "42.08119",
    "Altitude": "625",
    "EDI": null
  },
  {
    "name": "Dhoobley Airstrip",
    "code": "329644",
    "type": "small_airport",
    "location": "Dhoobley",
    "country_id": "302601",
    "country_code": "SO",
    "IATA": null,
    "ICAO": null,
    "Latitude": "0.399533",
    "Longitude": "40.99606",
    "Altitude": null,
    "EDI": null
  },
  {
    "name": "Jamaame Airstrip",
    "code": "340232",
    "type": "small_airport",
    "location": "Jamaame",
    "country_id": "302601",
    "country_code": "SO",
    "IATA": null,
    "ICAO": null,
    "Latitude": "0.05754",
    "Longitude": "42.755045",
    "Altitude": null,
    "EDI": null
  },
  {
    "name": "Afmadow Airport",
    "code": "356225",
    "type": "small_airport",
    "location": "Afmadow",
    "country_id": "302601",
    "country_code": "SO",
    "IATA": null,
    "ICAO": null,
    "Latitude": "0.53769",
    "Longitude": "42.05637",
    "Altitude": "79",
    "EDI": null
  },
  {
    "name": "Merca Airport",
    "code": "340230",
    "type": "closed",
    "location": "Merca",
    "country_id": "302601",
    "country_code": "SO",
    "IATA": null,
    "ICAO": null,
    "Latitude": "1.63274",
    "Longitude": "44.64865",
    "Altitude": null,
    "EDI": null
  },
  {
    "name": "Old Bosaso Airport",
    "code": "340224",
    "type": "closed",
    "location": "Bosaso",
    "country_id": "302601",
    "country_code": "SO",
    "IATA": null,
    "ICAO": null,
    "Latitude": "11.26794",
    "Longitude": "49.09876",
    "Altitude": null,
    "EDI": null
  },
  {
    "name": "Ceeldheer Airport",
    "code": "340228",
    "type": "closed",
    "location": "Ceeldheer",
    "country_id": "302601",
    "country_code": "SO",
    "IATA": null,
    "ICAO": null,
    "Latitude": "3.84182",
    "Longitude": "47.16841",
    "Altitude": null,
    "EDI": null
  }
]