[
  {
    "name": "Lomé–Tokoin International Airport",
    "code": "2144",
    "type": "medium_airport",
    "location": "Lomé",
    "country_id": "302605",
    "country_code": "TG",
    "IATA": "LFW",
    "ICAO": "DXXX",
    "Latitude": "6.16561",
    "Longitude": "1.25451",
    "Altitude": "72",
    "EDI": null
  },
  {
    "name": "Niamtougou International Airport",
    "code": "2143",
    "type": "medium_airport",
    "location": "Niamtougou",
    "country_id": "302605",
    "country_code": "TG",
    "IATA": "LRL",
    "ICAO": "DXNG",
    "Latitude": "9.767330169677734",
    "Longitude": "1.091249942779541",
    "Altitude": "1515",
    "EDI": null
  },
  {
    "name": "Sokodé Airport",
    "code": "30957",
    "type": "small_airport",
    "location": "Sokodé",
    "country_id": "302605",
    "country_code": "TG",
    "IATA": null,
    "ICAO": null,
    "Latitude": "8.994275",
    "Longitude": "1.153004",
    "Altitude": "1214",
    "EDI": null
  },
  {
    "name": "Akpaka Airport",
    "code": "30953",
    "type": "small_airport",
    "location": "Atakpamé",
    "country_id": "302605",
    "country_code": "TG",
    "IATA": null,
    "ICAO": null,
    "Latitude": "7.583000183105469",
    "Longitude": "1.1169999837875366",
    "Altitude": "689",
    "EDI": null
  },
  {
    "name": "Kolokope Airport",
    "code": "30955",
    "type": "small_airport",
    "location": "Anié",
    "country_id": "302605",
    "country_code": "TG",
    "IATA": null,
    "ICAO": null,
    "Latitude": "7.803451",
    "Longitude": "1.295966",
    "Altitude": "591",
    "EDI": null
  },
  {
    "name": "Djangou Airport",
    "code": "30954",
    "type": "small_airport",
    "location": "Dapaong",
    "country_id": "302605",
    "country_code": "TG",
    "IATA": null,
    "ICAO": null,
    "Latitude": "10.800417",
    "Longitude": "0.242372",
    "Altitude": "886",
    "EDI": null
  },
  {
    "name": "Sansanné-Mango Airport",
    "code": "30956",
    "type": "small_airport",
    "location": "Mango",
    "country_id": "302605",
    "country_code": "TG",
    "IATA": null,
    "ICAO": null,
    "Latitude": "10.373010635375977",
    "Longitude": "0.47138214111328125",
    "Altitude": "460",
    "EDI": null
  }
]