[
  {
    "name": "Boryspil International Airport",
    "code": "6467",
    "type": "large_airport",
    "location": "Boryspil",
    "country_id": "302719",
    "country_code": "UA",
    "IATA": "KBP",
    "ICAO": "UKBB",
    "Latitude": "50.345001",
    "Longitude": "30.894699",
    "Altitude": "427",
    "EDI": null
  },
  {
    "name": "Donetsk Sergei Prokofiev International Airport",
    "code": "6468",
    "type": "closed",
    "location": "Donetsk",
    "country_id": "302719",
    "country_code": "UA",
    "IATA": null,
    "ICAO": null,
    "Latitude": "48.075072",
    "Longitude": "37.72527",
    "Altitude": "791",
    "EDI": null
  },
  {
    "name": "Lviv International Airport",
    "code": "6481",
    "type": "large_airport",
    "location": "Lviv",
    "country_id": "302719",
    "country_code": "UA",
    "IATA": "LWO",
    "ICAO": "UKLL",
    "Latitude": "49.8125",
    "Longitude": "23.9561",
    "Altitude": "1071",
    "EDI": null
  },
  {
    "name": "Simferopol International Airport",
    "code": "6474",
    "type": "medium_airport",
    "location": "Simferopol",
    "country_id": "302719",
    "country_code": "UA",
    "IATA": "SIP",
    "ICAO": "UKFF",
    "Latitude": "45.0522",
    "Longitude": "33.975101",
    "Altitude": "639",
    "EDI": null
  },
  {
    "name": "Chernivtsi International Airport",
    "code": "6482",
    "type": "medium_airport",
    "location": "Chernivtsi",
    "country_id": "302719",
    "country_code": "UA",
    "IATA": "CWC",
    "ICAO": "UKLN",
    "Latitude": "48.259300231933594",
    "Longitude": "25.98080062866211",
    "Altitude": "826",
    "EDI": null
  },
  {
    "name": "Kharkiv International Airport",
    "code": "6476",
    "type": "medium_airport",
    "location": "Kharkiv",
    "country_id": "302719",
    "country_code": "UA",
    "IATA": "HRK",
    "ICAO": "UKHH",
    "Latitude": "49.926943",
    "Longitude": "36.290814",
    "Altitude": "508",
    "EDI": null
  },
  {
    "name": "Odessa International Airport",
    "code": "6487",
    "type": "medium_airport",
    "location": "Odessa",
    "country_id": "302719",
    "country_code": "UA",
    "IATA": "ODS",
    "ICAO": "UKOO",
    "Latitude": "46.4268",
    "Longitude": "30.6765",
    "Altitude": "172",
    "EDI": null
  },
  {
    "name": "Luhansk International Airport",
    "code": "6470",
    "type": "closed",
    "location": "Luhansk",
    "country_id": "302719",
    "country_code": "UA",
    "IATA": null,
    "ICAO": null,
    "Latitude": "48.4174",
    "Longitude": "39.3741",
    "Altitude": "636",
    "EDI": null
  },
  {
    "name": "Ivano-Frankivsk International Airport",
    "code": "6480",
    "type": "medium_airport",
    "location": "Ivano-Frankivsk",
    "country_id": "302719",
    "country_code": "UA",
    "IATA": "IFO",
    "ICAO": "UKLI",
    "Latitude": "48.88420104980469",
    "Longitude": "24.686100006103516",
    "Altitude": "919",
    "EDI": null
  },
  {
    "name": "Zaporizhzhia International Airport",
    "code": "6472",
    "type": "medium_airport",
    "location": "Zaporizhia",
    "country_id": "302719",
    "country_code": "UA",
    "IATA": "OZH",
    "ICAO": "UKDE",
    "Latitude": "47.867000579833984",
    "Longitude": "35.31570053100586",
    "Altitude": "373",
    "EDI": null
  },
  {
    "name": "Uzhhorod International Airport",
    "code": "6485",
    "type": "medium_airport",
    "location": "Uzhhorod",
    "country_id": "302719",
    "country_code": "UA",
    "IATA": "UDJ",
    "ICAO": "UKLU",
    "Latitude": "48.6343",
    "Longitude": "22.263399",
    "Altitude": "383",
    "EDI": null
  },
  {
    "name": "Rivne International Airport",
    "code": "6483",
    "type": "medium_airport",
    "location": "Rivne",
    "country_id": "302719",
    "country_code": "UA",
    "IATA": "RWN",
    "ICAO": "UKLR",
    "Latitude": "50.60710144042969",
    "Longitude": "26.141599655151367",
    "Altitude": "755",
    "EDI": null
  },
  {
    "name": "Dnipro International Airport",
    "code": "6471",
    "type": "medium_airport",
    "location": "Dnipro",
    "country_id": "302719",
    "country_code": "UA",
    "IATA": "DNK",
    "ICAO": "UKDD",
    "Latitude": "48.357201",
    "Longitude": "35.100601",
    "Altitude": "481",
    "EDI": null
  },
  {
    "name": "Mykolaiv International Airport",
    "code": "6486",
    "type": "medium_airport",
    "location": "Nikolayev",
    "country_id": "302719",
    "country_code": "UA",
    "IATA": "NLV",
    "ICAO": "UKON",
    "Latitude": "47.057899",
    "Longitude": "31.9198",
    "Altitude": "184",
    "EDI": null
  },
  {
    "name": "Khmelnytskyi Airport",
    "code": "6420",
    "type": "medium_airport",
    "location": "Khmelnytskyi",
    "country_id": "302719",
    "country_code": "UA",
    "IATA": "HMJ",
    "ICAO": "UKLH",
    "Latitude": "49.359699",
    "Longitude": "26.933399",
    "Altitude": "1150",
    "EDI": null
  },
  {
    "name": "Cherkasy International Airport",
    "code": "6477",
    "type": "medium_airport",
    "location": "Cherkasy",
    "country_id": "302719",
    "country_code": "UA",
    "IATA": "CKC",
    "ICAO": "UKKE",
    "Latitude": "49.4156",
    "Longitude": "31.9953",
    "Altitude": "375",
    "EDI": null
  },
  {
    "name": "Ternopil International Airport",
    "code": "6484",
    "type": "small_airport",
    "location": "Ternopil",
    "country_id": "302719",
    "country_code": "UA",
    "IATA": "TNL",
    "ICAO": "UKLT",
    "Latitude": "49.5242",
    "Longitude": "25.7001",
    "Altitude": "1072",
    "EDI": null
  },
  {
    "name": "Kryvyi Rih International Airport",
    "code": "6473",
    "type": "medium_airport",
    "location": "Kryvyi Rih",
    "country_id": "302719",
    "country_code": "UA",
    "IATA": "KWG",
    "ICAO": "UKDR",
    "Latitude": "48.04330062866211",
    "Longitude": "33.209999084472656",
    "Altitude": "408",
    "EDI": null
  },
  {
    "name": "Ihor Sikorsky Kyiv International Airport (Zhuliany)",
    "code": "6478",
    "type": "medium_airport",
    "location": "Kyiv",
    "country_id": "302719",
    "country_code": "UA",
    "IATA": "IEV",
    "ICAO": "UKKK",
    "Latitude": "50.40194",
    "Longitude": "30.45194",
    "Altitude": "587",
    "EDI": null
  },
  {
    "name": "Hostomel Airport",
    "code": "6479",
    "type": "medium_airport",
    "location": "Kiev",
    "country_id": "302719",
    "country_code": "UA",
    "IATA": null,
    "ICAO": null,
    "Latitude": "50.6035",
    "Longitude": "30.1919",
    "Altitude": "517",
    "EDI": null
  },
  {
    "name": "Mariupol International Airport",
    "code": "6469",
    "type": "medium_airport",
    "location": "Mariupol",
    "country_id": "302719",
    "country_code": "UA",
    "IATA": "MPW",
    "ICAO": "UKCM",
    "Latitude": "47.07609939575195",
    "Longitude": "37.44960021972656",
    "Altitude": "251",
    "EDI": null
  },
  {
    "name": "Jagellon Airfield",
    "code": "6419",
    "type": "small_airport",
    "location": "Gorodok",
    "country_id": "302719",
    "country_code": "UA",
    "IATA": null,
    "ICAO": null,
    "Latitude": "49.7379",
    "Longitude": "23.6689",
    "Altitude": "895",
    "EDI": null
  },
  {
    "name": "Chuhuiv Air Base",
    "code": "6417",
    "type": "small_airport",
    "location": "Chuhuiv",
    "country_id": "302719",
    "country_code": "UA",
    "IATA": null,
    "ICAO": null,
    "Latitude": "49.8382",
    "Longitude": "36.641201",
    "Altitude": "453",
    "EDI": null
  },
  {
    "name": "Kherson International Airport",
    "code": "32534",
    "type": "medium_airport",
    "location": "Kherson",
    "country_id": "302719",
    "country_code": "UA",
    "IATA": "KHE",
    "ICAO": "UKOH",
    "Latitude": "46.6758",
    "Longitude": "32.506401",
    "Altitude": "148",
    "EDI": null
  },
  {
    "name": "Vinnytsia/Gavyryshivka International Airport",
    "code": "30535",
    "type": "medium_airport",
    "location": "Vinnitsa",
    "country_id": "302719",
    "country_code": "UA",
    "IATA": "VIN",
    "ICAO": "UKWW",
    "Latitude": "49.242531",
    "Longitude": "28.613778",
    "Altitude": "961",
    "EDI": null
  },
  {
    "name": "Berdyansk Airport",
    "code": "31019",
    "type": "medium_airport",
    "location": "Berdyansk",
    "country_id": "302719",
    "country_code": "UA",
    "IATA": "ERD",
    "ICAO": "UKDB",
    "Latitude": "46.814999",
    "Longitude": "36.758099",
    "Altitude": "171",
    "EDI": null
  },
  {
    "name": "Melitopol Air Base",
    "code": "44311",
    "type": "medium_airport",
    "location": "Melitopol",
    "country_id": "302719",
    "country_code": "UA",
    "IATA": null,
    "ICAO": null,
    "Latitude": "46.880001",
    "Longitude": "35.305",
    "Altitude": null,
    "EDI": null
  },
  {
    "name": "Zhovtneve Air Base",
    "code": "44376",
    "type": "medium_airport",
    "location": "Bolgrad",
    "country_id": "302719",
    "country_code": "UA",
    "IATA": null,
    "ICAO": null,
    "Latitude": "45.639999",
    "Longitude": "28.67",
    "Altitude": null,
    "EDI": null
  },
  {
    "name": "Ozerne Air Base",
    "code": "44432",
    "type": "medium_airport",
    "location": "Zhytomyr",
    "country_id": "302719",
    "country_code": "UA",
    "IATA": null,
    "ICAO": null,
    "Latitude": "50.158298",
    "Longitude": "28.7383",
    "Altitude": "761",
    "EDI": null
  },
  {
    "name": "Kacha Air Base",
    "code": "44313",
    "type": "medium_airport",
    "location": "Kacha",
    "country_id": "302719",
    "country_code": "UA",
    "IATA": null,
    "ICAO": null,
    "Latitude": "44.779764",
    "Longitude": "33.572245",
    "Altitude": "403",
    "EDI": null
  },
  {
    "name": "Kirovskoe Air Base",
    "code": "44297",
    "type": "medium_airport",
    "location": "Kirovskoe",
    "country_id": "302719",
    "country_code": "UA",
    "IATA": null,
    "ICAO": null,
    "Latitude": "45.16699981689453",
    "Longitude": "35.18299865722656",
    "Altitude": null,
    "EDI": null
  },
  {
    "name": "Bila Tserkva Air Base",
    "code": "44343",
    "type": "medium_airport",
    "location": "Bila Tserkva",
    "country_id": "302719",
    "country_code": "UA",
    "IATA": null,
    "ICAO": null,
    "Latitude": "49.795228",
    "Longitude": "30.024435",
    "Altitude": "584",
    "EDI": null
  },
  {
    "name": "Dolgintsevo Air Base",
    "code": "45170",
    "type": "medium_airport",
    "location": "Kryvyi Rih",
    "country_id": "302719",
    "country_code": "UA",
    "IATA": null,
    "ICAO": null,
    "Latitude": "47.887",
    "Longitude": "33.533",
    "Altitude": "341",
    "EDI": null
  },
  {
    "name": "Saky Air Base",
    "code": "44296",
    "type": "medium_airport",
    "location": "Novofedorivka",
    "country_id": "302719",
    "country_code": "UA",
    "IATA": null,
    "ICAO": null,
    "Latitude": "45.090611",
    "Longitude": "33.598536",
    "Altitude": "36",
    "EDI": null
  },
  {
    "name": "Oktyabrskoe Air Base",
    "code": "44294",
    "type": "medium_airport",
    "location": "Oktyabrskoe",
    "country_id": "302719",
    "country_code": "UA",
    "IATA": null,
    "ICAO": null,
    "Latitude": "45.31999969482422",
    "Longitude": "34.099998474121094",
    "Altitude": null,
    "EDI": null
  },
  {
    "name": "Sevastopol International Airport / Belbek Air Base",
    "code": "44293",
    "type": "medium_airport",
    "location": "Sevastopol",
    "country_id": "302719",
    "country_code": "UA",
    "IATA": "UKS",
    "ICAO": "UKFB",
    "Latitude": "44.691822",
    "Longitude": "33.57462",
    "Altitude": "344",
    "EDI": null
  },
  {
    "name": "Gvardeyskoye (Hvardiiske) Air Base",
    "code": "44291",
    "type": "medium_airport",
    "location": "Hvardiiske",
    "country_id": "302719",
    "country_code": "UA",
    "IATA": null,
    "ICAO": null,
    "Latitude": "45.116192",
    "Longitude": "33.976625",
    "Altitude": "721",
    "EDI": null
  },
  {
    "name": "Dzhankoy Air Base",
    "code": "43680",
    "type": "medium_airport",
    "location": "Dzhankoy",
    "country_id": "302719",
    "country_code": "UA",
    "IATA": null,
    "ICAO": null,
    "Latitude": "45.700901",
    "Longitude": "34.4189",
    "Altitude": "75",
    "EDI": null
  },
  {
    "name": "Nizhyn Air Base",
    "code": "43013",
    "type": "medium_airport",
    "location": "Nizhyn",
    "country_id": "302719",
    "country_code": "UA",
    "IATA": null,
    "ICAO": null,
    "Latitude": "51.088535",
    "Longitude": "31.870995",
    "Altitude": "440",
    "EDI": null
  },
  {
    "name": "Chervonoarmiis'ke Airstrip",
    "code": "316279",
    "type": "small_airport",
    "location": "Kubei",
    "country_id": "302719",
    "country_code": "UA",
    "IATA": null,
    "ICAO": null,
    "Latitude": "45.791888",
    "Longitude": "28.72434",
    "Altitude": null,
    "EDI": null
  },
  {
    "name": "Rysove Airfield",
    "code": "44298",
    "type": "small_airport",
    "location": "Rysove",
    "country_id": "302719",
    "country_code": "UA",
    "IATA": null,
    "ICAO": null,
    "Latitude": "45.995499",
    "Longitude": "33.681017",
    "Altitude": null,
    "EDI": null
  },
  {
    "name": "Kirovograd Airport",
    "code": "31744",
    "type": "small_airport",
    "location": "Kirovograd",
    "country_id": "302719",
    "country_code": "UA",
    "IATA": "KGO",
    "ICAO": "UKKG",
    "Latitude": "48.542801",
    "Longitude": "32.285",
    "Altitude": "568",
    "EDI": null
  },
  {
    "name": "Kalynivka Air Base",
    "code": "44684",
    "type": "small_airport",
    "location": "Kalynivka",
    "country_id": "302719",
    "country_code": "UA",
    "IATA": null,
    "ICAO": null,
    "Latitude": "49.485372",
    "Longitude": "28.539097",
    "Altitude": null,
    "EDI": null
  },
  {
    "name": "Kanatove Air Base",
    "code": "46365",
    "type": "small_airport",
    "location": "Kirovohrad",
    "country_id": "302719",
    "country_code": "UA",
    "IATA": null,
    "ICAO": null,
    "Latitude": "48.561364587499995",
    "Longitude": "32.3872071505",
    "Altitude": null,
    "EDI": null
  },
  {
    "name": "Znamenka Airfield",
    "code": "542633",
    "type": "small_airport",
    "location": "Znamenka",
    "country_id": "302719",
    "country_code": "UA",
    "IATA": null,
    "ICAO": null,
    "Latitude": "48.740052",
    "Longitude": "32.696645",
    "Altitude": "583",
    "EDI": null
  },
  {
    "name": "Liman Airfield",
    "code": "46270",
    "type": "small_airport",
    "location": "Naberezhne",
    "country_id": "302719",
    "country_code": "UA",
    "IATA": null,
    "ICAO": null,
    "Latitude": "46.57851",
    "Longitude": "30.703053",
    "Altitude": null,
    "EDI": null
  },
  {
    "name": "Lymanske Airfield",
    "code": "44397",
    "type": "small_airport",
    "location": "Lymanske",
    "country_id": "302719",
    "country_code": "UA",
    "IATA": null,
    "ICAO": null,
    "Latitude": "46.668998",
    "Longitude": "30.011105",
    "Altitude": null,
    "EDI": null
  },
  {
    "name": "Artsyz Air Base",
    "code": "44395",
    "type": "small_airport",
    "location": "Artsyz",
    "country_id": "302719",
    "country_code": "UA",
    "IATA": null,
    "ICAO": null,
    "Latitude": "45.945829",
    "Longitude": "29.376832",
    "Altitude": null,
    "EDI": null
  },
  {
    "name": "Yukharina Balka Airfield",
    "code": "44307",
    "type": "small_airport",
    "location": "Sevastopol",
    "country_id": "302719",
    "country_code": "UA",
    "IATA": null,
    "ICAO": "UKFP",
    "Latitude": "44.549003",
    "Longitude": "33.488613",
    "Altitude": "335",
    "EDI": null
  },
  {
    "name": "Sevastopol Kozachya Bay Aerodrome / Khersones Air Base",
    "code": "44309",
    "type": "small_airport",
    "location": "Sevastopol",
    "country_id": "302719",
    "country_code": "UA",
    "IATA": null,
    "ICAO": null,
    "Latitude": "44.578466",
    "Longitude": "33.395462",
    "Altitude": "46",
    "EDI": null
  }
]