[
  {
    "name": "Cyril E. King Airport",
    "code": "6369",
    "type": "medium_airport",
    "location": "Charlotte Amalie",
    "country_id": "302758",
    "country_code": "VI",
    "IATA": "STT",
    "ICAO": "TIST",
    "Latitude": "18.337091",
    "Longitude": "-64.977251",
    "Altitude": "23",
    "EDI": null
  },
  {
    "name": "DPS Heliport",
    "code": "25491",
    "type": "heliport",
    "location": "Frederiksted",
    "country_id": "302758",
    "country_code": "VI",
    "IATA": null,
    "ICAO": null,
    "Latitude": "17.709208",
    "Longitude": "-64.796512",
    "Altitude": "50",
    "EDI": null
  },
  {
    "name": "Henry E Rohlsen Airport",
    "code": "6370",
    "type": "medium_airport",
    "location": "Christiansted",
    "country_id": "302758",
    "country_code": "VI",
    "IATA": "STX",
    "ICAO": "TISX",
    "Latitude": "17.701413",
    "Longitude": "-64.802608",
    "Altitude": "74",
    "EDI": null
  },
  {
    "name": "Charlotte Amalie Harbor Seaplane Base",
    "code": "25495",
    "type": "seaplane_base",
    "location": "Charlotte Amalie",
    "country_id": "302758",
    "country_code": "VI",
    "IATA": "SPB",
    "ICAO": null,
    "Latitude": "18.338204",
    "Longitude": "-64.939675",
    "Altitude": null,
    "EDI": null
  },
  {
    "name": "St. Thomas Waterfront Heliport",
    "code": "25492",
    "type": "heliport",
    "location": "Charlotte Amalie",
    "country_id": "302758",
    "country_code": "VI",
    "IATA": null,
    "ICAO": null,
    "Latitude": "18.338482",
    "Longitude": "-64.93994",
    "Altitude": "4",
    "EDI": null
  },
  {
    "name": "Frenchman's Reef Heliport",
    "code": "25493",
    "type": "closed",
    "location": "Bakkeroe",
    "country_id": "302758",
    "country_code": "VI",
    "IATA": null,
    "ICAO": null,
    "Latitude": "18.319921",
    "Longitude": "-64.921882",
    "Altitude": "20",
    "EDI": null
  },
  {
    "name": "Stouffer Grand Beach Resort Heliport",
    "code": "25494",
    "type": "closed",
    "location": "Charlotte Amalie",
    "country_id": "302758",
    "country_code": "VI",
    "IATA": null,
    "ICAO": null,
    "Latitude": "18.345788",
    "Longitude": "-64.904031",
    "Altitude": "125",
    "EDI": null
  },
  {
    "name": "Christiansted Harbor Seaplane Base",
    "code": "25496",
    "type": "seaplane_base",
    "location": "Christiansted",
    "country_id": "302758",
    "country_code": "VI",
    "IATA": "SSB",
    "ICAO": null,
    "Latitude": "17.7472",
    "Longitude": "-64.704903",
    "Altitude": null,
    "EDI": null
  },
  {
    "name": "Cruz Bay Seaplane Base",
    "code": "309465",
    "type": "seaplane_base",
    "location": "Cruz Bay",
    "country_id": "302758",
    "country_code": "VI",
    "IATA": "SJF",
    "ICAO": null,
    "Latitude": "18.3315",
    "Longitude": "-64.796",
    "Altitude": null,
    "EDI": null
  },
  {
    "name": "St. John Heliport",
    "code": "595428",
    "type": "heliport",
    "location": "Susannaberg",
    "country_id": "302758",
    "country_code": "VI",
    "IATA": null,
    "ICAO": null,
    "Latitude": "18.34078",
    "Longitude": "-64.77402",
    "Altitude": "705",
    "EDI": null
  },
  {
    "name": "Schneider Regional Medical Center Heliport",
    "code": "595429",
    "type": "heliport",
    "location": "Charlotte Amalie",
    "country_id": "302758",
    "country_code": "VI",
    "IATA": null,
    "ICAO": null,
    "Latitude": "18.3414",
    "Longitude": "-64.91418",
    "Altitude": "85",
    "EDI": null
  }
]