[
  {
    "name": "Tan Son Nhat International Airport",
    "code": "26708",
    "type": "large_airport",
    "location": "Ho Chi Minh City",
    "country_id": "302670",
    "country_code": "VN",
    "IATA": "SGN",
    "ICAO": "VVTS",
    "Latitude": "10.8188",
    "Longitude": "106.652",
    "Altitude": "33",
    "EDI": null
  },
  {
    "name": "Noi Bai International Airport",
    "code": "26700",
    "type": "large_airport",
    "location": "Hanoi (Soc Son)",
    "country_id": "302670",
    "country_code": "VN",
    "IATA": "HAN",
    "ICAO": "VVNB",
    "Latitude": "21.221201",
    "Longitude": "105.806999",
    "Altitude": "39",
    "EDI": null
  },
  {
    "name": "Cam Ranh International Airport / Cam Ranh Air Base",
    "code": "26693",
    "type": "medium_airport",
    "location": "Cam Ranh",
    "country_id": "302670",
    "country_code": "VN",
    "IATA": "CXR",
    "ICAO": "VVCR",
    "Latitude": "11.9982",
    "Longitude": "109.219002",
    "Altitude": "40",
    "EDI": null
  },
  {
    "name": "Phu Quoc International Airport",
    "code": "26705",
    "type": "medium_airport",
    "location": "Phu Quoc Island",
    "country_id": "302670",
    "country_code": "VN",
    "IATA": "PQC",
    "ICAO": "VVPQ",
    "Latitude": "10.1698",
    "Longitude": "103.9931",
    "Altitude": "37",
    "EDI": null
  },
  {
    "name": "Can Tho International Airport",
    "code": "26695",
    "type": "medium_airport",
    "location": "Can Tho",
    "country_id": "302670",
    "country_code": "VN",
    "IATA": "VCA",
    "ICAO": "VVCT",
    "Latitude": "10.0851",
    "Longitude": "105.711998",
    "Altitude": "9",
    "EDI": null
  },
  {
    "name": "Con Dao Airport",
    "code": "26694",
    "type": "medium_airport",
    "location": "Con Dao",
    "country_id": "302670",
    "country_code": "VN",
    "IATA": "VCS",
    "ICAO": "VVCS",
    "Latitude": "8.73183",
    "Longitude": "106.633003",
    "Altitude": "20",
    "EDI": null
  },
  {
    "name": "Dong Tac Airport",
    "code": "26707",
    "type": "medium_airport",
    "location": "Tuy Hoa",
    "country_id": "302670",
    "country_code": "VN",
    "IATA": "TBB",
    "ICAO": "VVTH",
    "Latitude": "13.0496",
    "Longitude": "109.334",
    "Altitude": "20",
    "EDI": null
  },
  {
    "name": "Phu Cat Airport",
    "code": "26703",
    "type": "medium_airport",
    "location": "Quy Nohn",
    "country_id": "302670",
    "country_code": "VN",
    "IATA": "UIH",
    "ICAO": "VVPC",
    "Latitude": "13.955",
    "Longitude": "109.042",
    "Altitude": "80",
    "EDI": null
  },
  {
    "name": "Da Nang International Airport",
    "code": "26697",
    "type": "medium_airport",
    "location": "Da Nang",
    "country_id": "302670",
    "country_code": "VN",
    "IATA": "DAD",
    "ICAO": "VVDN",
    "Latitude": "16.0439",
    "Longitude": "108.198997",
    "Altitude": "33",
    "EDI": null
  },
  {
    "name": "Buon Ma Thuot Airport",
    "code": "26690",
    "type": "medium_airport",
    "location": "Buon Ma Thuot",
    "country_id": "302670",
    "country_code": "VN",
    "IATA": "BMV",
    "ICAO": "VVBM",
    "Latitude": "12.668299675",
    "Longitude": "108.120002747",
    "Altitude": "1729",
    "EDI": null
  },
  {
    "name": "Cat Bi International Airport",
    "code": "26692",
    "type": "medium_airport",
    "location": "Haiphong (Hai An)",
    "country_id": "302670",
    "country_code": "VN",
    "IATA": "HPH",
    "ICAO": "VVCI",
    "Latitude": "20.81686",
    "Longitude": "106.722994",
    "Altitude": "6",
    "EDI": null
  },
  {
    "name": "Dien Bien Phu Airport",
    "code": "26696",
    "type": "medium_airport",
    "location": "Dien Bien Phu",
    "country_id": "302670",
    "country_code": "VN",
    "IATA": "DIN",
    "ICAO": "VVDB",
    "Latitude": "21.3974990845",
    "Longitude": "103.008003235",
    "Altitude": "1611",
    "EDI": null
  },
  {
    "name": "Vinh Airport",
    "code": "26709",
    "type": "medium_airport",
    "location": "Vinh",
    "country_id": "302670",
    "country_code": "VN",
    "IATA": "VII",
    "ICAO": "VVVH",
    "Latitude": "18.7376003265",
    "Longitude": "105.67099762",
    "Altitude": "23",
    "EDI": null
  },
  {
    "name": "Phu Bai International Airport",
    "code": "26702",
    "type": "medium_airport",
    "location": "Huế",
    "country_id": "302670",
    "country_code": "VN",
    "IATA": "HUI",
    "ICAO": "VVPB",
    "Latitude": "16.400628",
    "Longitude": "107.703094",
    "Altitude": "48",
    "EDI": null
  },
  {
    "name": "Pleiku Airport",
    "code": "26704",
    "type": "medium_airport",
    "location": "Pleiku",
    "country_id": "302670",
    "country_code": "VN",
    "IATA": "PXU",
    "ICAO": "VVPK",
    "Latitude": "14.004500389099121",
    "Longitude": "108.01699829101562",
    "Altitude": "2434",
    "EDI": null
  },
  {
    "name": "Nha Trang Air Base",
    "code": "26701",
    "type": "closed",
    "location": "Nha Trang",
    "country_id": "302670",
    "country_code": "VN",
    "IATA": null,
    "ICAO": null,
    "Latitude": "12.2275",
    "Longitude": "109.192001",
    "Altitude": "20",
    "EDI": null
  },
  {
    "name": "Chu Lai Airport",
    "code": "26691",
    "type": "small_airport",
    "location": "Tam Nghĩa",
    "country_id": "302670",
    "country_code": "VN",
    "IATA": "VCL",
    "ICAO": "VVCA",
    "Latitude": "15.4033",
    "Longitude": "108.706001",
    "Altitude": "10",
    "EDI": null
  },
  {
    "name": "Haiphong Kien An Airport",
    "code": "26592",
    "type": "small_airport",
    "location": "Haiphong (Kien An)",
    "country_id": "302670",
    "country_code": "VN",
    "IATA": null,
    "ICAO": null,
    "Latitude": "20.8034",
    "Longitude": "106.605003",
    "Altitude": "50",
    "EDI": null
  },
  {
    "name": "Phan Rang Airport",
    "code": "26706",
    "type": "small_airport",
    "location": "Phan Rang",
    "country_id": "302670",
    "country_code": "VN",
    "IATA": "PHA",
    "ICAO": "VVPR",
    "Latitude": "11.6335",
    "Longitude": "108.952003",
    "Altitude": "101",
    "EDI": null
  },
  {
    "name": "Bien Hoa Air Base",
    "code": "26591",
    "type": "small_airport",
    "location": "Bien Hoa",
    "country_id": "302670",
    "country_code": "VN",
    "IATA": null,
    "ICAO": null,
    "Latitude": "10.9766998291",
    "Longitude": "106.818000793",
    "Altitude": "79",
    "EDI": null
  },
  {
    "name": "Kep Air Base",
    "code": "26699",
    "type": "small_airport",
    "location": "Kep",
    "country_id": "302670",
    "country_code": "VN",
    "IATA": null,
    "ICAO": null,
    "Latitude": "21.3946",
    "Longitude": "106.261002",
    "Altitude": "55",
    "EDI": null
  },
  {
    "name": "Gia Lam Air Base",
    "code": "26698",
    "type": "medium_airport",
    "location": "Hanoi  (Long Bien)",
    "country_id": "302670",
    "country_code": "VN",
    "IATA": null,
    "ICAO": null,
    "Latitude": "21.040501",
    "Longitude": "105.886002",
    "Altitude": "50",
    "EDI": null
  },
  {
    "name": "Kontum Airport",
    "code": "35153",
    "type": "closed",
    "location": "Kontum",
    "country_id": "302670",
    "country_code": "VN",
    "IATA": null,
    "ICAO": null,
    "Latitude": "14.356075",
    "Longitude": "108.016667",
    "Altitude": "1804",
    "EDI": null
  },
  {
    "name": "Van Don International Airport",
    "code": "332254",
    "type": "medium_airport",
    "location": "Van Don",
    "country_id": "302670",
    "country_code": "VN",
    "IATA": "VDO",
    "ICAO": "VVVD",
    "Latitude": "21.120693",
    "Longitude": "107.41539",
    "Altitude": "24",
    "EDI": null
  },
  {
    "name": "Rach Gia Airport",
    "code": "32580",
    "type": "medium_airport",
    "location": "Rach Gia",
    "country_id": "302670",
    "country_code": "VN",
    "IATA": "VKG",
    "ICAO": "VVRG",
    "Latitude": "9.95802997234",
    "Longitude": "105.132379532",
    "Altitude": "7",
    "EDI": null
  },
  {
    "name": "Lien Khuong Airport",
    "code": "30923",
    "type": "medium_airport",
    "location": "Da Lat",
    "country_id": "302670",
    "country_code": "VN",
    "IATA": "DLI",
    "ICAO": "VVDL",
    "Latitude": "11.750556",
    "Longitude": "108.366997",
    "Altitude": "3156",
    "EDI": null
  },
  {
    "name": "Cà Mau Airport",
    "code": "301824",
    "type": "medium_airport",
    "location": "Ca Mau City",
    "country_id": "302670",
    "country_code": "VN",
    "IATA": "CAH",
    "ICAO": "VVCM",
    "Latitude": "9.177667",
    "Longitude": "105.177778",
    "Altitude": "6",
    "EDI": null
  },
  {
    "name": "Dong Hoi Airport",
    "code": "35144",
    "type": "medium_airport",
    "location": "Dong Hoi",
    "country_id": "302670",
    "country_code": "VN",
    "IATA": "VDH",
    "ICAO": "VVDH",
    "Latitude": "17.515",
    "Longitude": "106.590556",
    "Altitude": "59",
    "EDI": null
  },
  {
    "name": "Tho Xuan Airport",
    "code": "327354",
    "type": "small_airport",
    "location": "Thanh Hóa",
    "country_id": "302670",
    "country_code": "VN",
    "IATA": "THD",
    "ICAO": "VVTX",
    "Latitude": "19.901667",
    "Longitude": "105.467778",
    "Altitude": "59",
    "EDI": null
  },
  {
    "name": "Hoa Lac Airfield",
    "code": "430077",
    "type": "small_airport",
    "location": "Hanoi (Thach That)",
    "country_id": "302670",
    "country_code": "VN",
    "IATA": null,
    "ICAO": null,
    "Latitude": "21.028531",
    "Longitude": "105.487428",
    "Altitude": "128",
    "EDI": null
  },
  {
    "name": "Phan Thiet Airport",
    "code": "32158",
    "type": "closed",
    "location": "Phan Thiet",
    "country_id": "302670",
    "country_code": "VN",
    "IATA": null,
    "ICAO": null,
    "Latitude": "10.906204",
    "Longitude": "108.069008",
    "Altitude": null,
    "EDI": null
  },
  {
    "name": "Đảo Trường Sa (Spratly Island) Airport",
    "code": "314645",
    "type": "small_airport",
    "location": "Trường Sa (Trường Sa)",
    "country_id": "302670",
    "country_code": "VN",
    "IATA": null,
    "ICAO": null,
    "Latitude": "8.644541",
    "Longitude": "111.920347",
    "Altitude": null,
    "EDI": null
  },
  {
    "name": "Phu Giao Airport",
    "code": "430104",
    "type": "small_airport",
    "location": "Phu Giao",
    "country_id": "302670",
    "country_code": "VN",
    "IATA": "PHU",
    "ICAO": null,
    "Latitude": "11.30034",
    "Longitude": "106.79325",
    "Altitude": null,
    "EDI": null
  },
  {
    "name": "Phu Quy Airport",
    "code": "351429",
    "type": "small_airport",
    "location": "Phu Quy",
    "country_id": "302670",
    "country_code": "VN",
    "IATA": null,
    "ICAO": null,
    "Latitude": "10.53367",
    "Longitude": "108.92867",
    "Altitude": "3",
    "EDI": null
  },
  {
    "name": "Vung Tau Airport",
    "code": "32601",
    "type": "small_airport",
    "location": "Vũng Tàu",
    "country_id": "302670",
    "country_code": "VN",
    "IATA": "VTG",
    "ICAO": "VVVT",
    "Latitude": "10.375093",
    "Longitude": "107.096185",
    "Altitude": "13",
    "EDI": null
  },
  {
    "name": "Vinh Long Airfield",
    "code": "311043",
    "type": "closed",
    "location": "Vinh Long",
    "country_id": "302670",
    "country_code": "VN",
    "IATA": null,
    "ICAO": null,
    "Latitude": "10.2509",
    "Longitude": "105.9445",
    "Altitude": "27",
    "EDI": null
  },
  {
    "name": "Sóc Trăng Airport",
    "code": "316766",
    "type": "small_airport",
    "location": "Sóc Trăng",
    "country_id": "302670",
    "country_code": "VN",
    "IATA": "SOA",
    "ICAO": null,
    "Latitude": "9.5814",
    "Longitude": "105.9602",
    "Altitude": "20",
    "EDI": null
  },
  {
    "name": "Yen Bai Air Base",
    "code": "313727",
    "type": "small_airport",
    "location": "Yen Bai",
    "country_id": "302670",
    "country_code": "VN",
    "IATA": null,
    "ICAO": null,
    "Latitude": "21.732873",
    "Longitude": "104.853601",
    "Altitude": "131",
    "EDI": null
  },
  {
    "name": "Na San Airport",
    "code": "32382",
    "type": "small_airport",
    "location": "Mai Son",
    "country_id": "302670",
    "country_code": "VN",
    "IATA": "SQH",
    "ICAO": "VVNS",
    "Latitude": "21.215301",
    "Longitude": "104.032803",
    "Altitude": "2133",
    "EDI": null
  },
  {
    "name": "Cam Ly Airport",
    "code": "302311",
    "type": "closed",
    "location": null,
    "country_id": "302670",
    "country_code": "VN",
    "IATA": null,
    "ICAO": null,
    "Latitude": "11.950284",
    "Longitude": "108.411005",
    "Altitude": "4937",
    "EDI": null
  },
  {
    "name": "Nhon Co Airfield",
    "code": "313231",
    "type": "small_airport",
    "location": "Đăk R'Lấp",
    "country_id": "302670",
    "country_code": "VN",
    "IATA": "HOO",
    "ICAO": null,
    "Latitude": "11.9787",
    "Longitude": "107.5638",
    "Altitude": "2270",
    "EDI": null
  },
  {
    "name": "Bãi Vũng Mây 1 (Orleana Shoal) Helipad",
    "code": "504740",
    "type": "heliport",
    "location": "Trường Sa (Trường Sa)",
    "country_id": "302670",
    "country_code": "VN",
    "IATA": null,
    "ICAO": null,
    "Latitude": "7.70309",
    "Longitude": "111.75218",
    "Altitude": null,
    "EDI": null
  },
  {
    "name": "Phi Trường Nước Trong (cũ)",
    "code": "506005",
    "type": "closed",
    "location": null,
    "country_id": "302670",
    "country_code": "VN",
    "IATA": null,
    "ICAO": null,
    "Latitude": "10.83481",
    "Longitude": "106.959386",
    "Altitude": null,
    "EDI": null
  },
  {
    "name": "Bãi Vũng Mây 2 (Kingston Shoal) Helipad",
    "code": "504741",
    "type": "heliport",
    "location": "Trường Sa (Trường Sa)",
    "country_id": "302670",
    "country_code": "VN",
    "IATA": null,
    "ICAO": null,
    "Latitude": "7.5348",
    "Longitude": "111.54725",
    "Altitude": null,
    "EDI": null
  },
  {
    "name": "Bãi Vũng Mây 3 (Bombay Castle Shoal) Helipad",
    "code": "504742",
    "type": "heliport",
    "location": "Trường Sa (Trường Sa)",
    "country_id": "302670",
    "country_code": "VN",
    "IATA": null,
    "ICAO": null,
    "Latitude": "7.875317",
    "Longitude": "111.744572",
    "Altitude": null,
    "EDI": null
  },
  {
    "name": "Chau Duc Airport",
    "code": "430110",
    "type": "closed",
    "location": "Chau Duc",
    "country_id": "302670",
    "country_code": "VN",
    "IATA": null,
    "ICAO": null,
    "Latitude": "10.56844",
    "Longitude": "107.18631",
    "Altitude": null,
    "EDI": null
  },
  {
    "name": "Long Thanh International Airport (under construction)",
    "code": "342100",
    "type": "closed",
    "location": "Ho Chi Minh City (Long Thanh)",
    "country_id": "302670",
    "country_code": "VN",
    "IATA": null,
    "ICAO": null,
    "Latitude": "10.7725",
    "Longitude": "107.045278",
    "Altitude": "249",
    "EDI": null
  },
  {
    "name": "Binh Duong Airport",
    "code": "430109",
    "type": "closed",
    "location": "Binh Duong",
    "country_id": "302670",
    "country_code": "VN",
    "IATA": null,
    "ICAO": null,
    "Latitude": "10.99827",
    "Longitude": "106.69953",
    "Altitude": null,
    "EDI": null
  },
  {
    "name": "Bu Dop Airport",
    "code": "430098",
    "type": "closed",
    "location": "Bu Dop",
    "country_id": "302670",
    "country_code": "VN",
    "IATA": null,
    "ICAO": null,
    "Latitude": "12.02068",
    "Longitude": "106.81091",
    "Altitude": null,
    "EDI": null
  },
  {
    "name": "Phuoc Binh Airport",
    "code": "430099",
    "type": "closed",
    "location": "Phuoc Binh",
    "country_id": "302670",
    "country_code": "VN",
    "IATA": null,
    "ICAO": null,
    "Latitude": "11.82115",
    "Longitude": "106.96111",
    "Altitude": null,
    "EDI": null
  }
]